header: 
  seq: 923
  stamp: 
    secs: 4707
    nsecs: 691373591
  frame_id: "map"
child_frame_id: "ego_vehicle"
pose: 
  pose: 
    position: 
      x: 132.816390991
      y: -302.571228027
      z: 0.256279677153
    orientation: 
      x: -1.01339977282e-05
      y: -5.59044728929e-06
      z: 0.99999997658
      w: 0.000216115464094
  covariance: [0.0, 0.0, 0.0, 0.0, 0.0, 0.0, 0.0, 0.0, 0.0, 0.0, 0.0, 0.0, 0.0, 0.0, 0.0, 0.0, 0.0, 0.0, 0.0, 0.0, 0.0, 0.0, 0.0, 0.0, 0.0, 0.0, 0.0, 0.0, 0.0, 0.0, 0.0, 0.0, 0.0, 0.0, 0.0, 0.0]
twist: 
  twist: 
    linear: 
      x: 5.3981485633
      y: -0.00110386953889
      z: 0.000108061967222
    angular: 
      x: 2.75840599709e-05
      y: -0.00166906222206
      z: -0.0290878048429
  covariance: [0.0, 0.0, 0.0, 0.0, 0.0, 0.0, 0.0, 0.0, 0.0, 0.0, 0.0, 0.0, 0.0, 0.0, 0.0, 0.0, 0.0, 0.0, 0.0, 0.0, 0.0, 0.0, 0.0, 0.0, 0.0, 0.0, 0.0, 0.0, 0.0, 0.0, 0.0, 0.0, 0.0, 0.0, 0.0, 0.0]
---
header: 
  seq: 924
  stamp: 
    secs: 4707
    nsecs: 741373592
  frame_id: "map"
child_frame_id: "ego_vehicle"
pose: 
  pose: 
    position: 
      x: 132.548706055
      y: -302.570861816
      z: 0.256286501884
    orientation: 
      x: -1.81198934613e-05
      y: -3.99436764979e-06
      z: 0.999999999615
      w: 2.06394260592e-05
  covariance: [0.0, 0.0, 0.0, 0.0, 0.0, 0.0, 0.0, 0.0, 0.0, 0.0, 0.0, 0.0, 0.0, 0.0, 0.0, 0.0, 0.0, 0.0, 0.0, 0.0, 0.0, 0.0, 0.0, 0.0, 0.0, 0.0, 0.0, 0.0, 0.0, 0.0, 0.0, 0.0, 0.0, 0.0, 0.0, 0.0]
twist: 
  twist: 
    linear: 
      x: 5.33146775524
      y: -0.00304515374769
      z: 0.000192740631234
    angular: 
      x: 3.08131041879e-05
      y: 0.00132567620767
      z: 0.0262100616286
  covariance: [0.0, 0.0, 0.0, 0.0, 0.0, 0.0, 0.0, 0.0, 0.0, 0.0, 0.0, 0.0, 0.0, 0.0, 0.0, 0.0, 0.0, 0.0, 0.0, 0.0, 0.0, 0.0, 0.0, 0.0, 0.0, 0.0, 0.0, 0.0, 0.0, 0.0, 0.0, 0.0, 0.0, 0.0, 0.0, 0.0]
---
header: 
  seq: 925
  stamp: 
    secs: 4707
    nsecs: 791373593
  frame_id: "map"
child_frame_id: "ego_vehicle"
pose: 
  pose: 
    position: 
      x: 132.280166626
      y: -302.570922852
      z: 0.256273686886
    orientation: 
      x: -3.21978618576e-06
      y: -3.99382592765e-06
      z: 0.999999959576
      w: 0.000284292429675
  covariance: [0.0, 0.0, 0.0, 0.0, 0.0, 0.0, 0.0, 0.0, 0.0, 0.0, 0.0, 0.0, 0.0, 0.0, 0.0, 0.0, 0.0, 0.0, 0.0, 0.0, 0.0, 0.0, 0.0, 0.0, 0.0, 0.0, 0.0, 0.0, 0.0, 0.0, 0.0, 0.0, 0.0, 0.0, 0.0, 0.0]
twist: 
  twist: 
    linear: 
      x: 5.38991858644
      y: -0.000600856383419
      z: 3.34671670455e-05
    angular: 
      x: 1.60549275458e-05
      y: -0.00156599931828
      z: -0.0290427391638
  covariance: [0.0, 0.0, 0.0, 0.0, 0.0, 0.0, 0.0, 0.0, 0.0, 0.0, 0.0, 0.0, 0.0, 0.0, 0.0, 0.0, 0.0, 0.0, 0.0, 0.0, 0.0, 0.0, 0.0, 0.0, 0.0, 0.0, 0.0, 0.0, 0.0, 0.0, 0.0, 0.0, 0.0, 0.0, 0.0, 0.0]
---
header: 
  seq: 926
  stamp: 
    secs: 4707
    nsecs: 841373593
  frame_id: "map"
child_frame_id: "ego_vehicle"
pose: 
  pose: 
    position: 
      x: 132.012985229
      y: -302.570556641
      z: 0.256283462048
    orientation: 
      x: -1.46631137096e-05
      y: -4.25977665826e-06
      z: 0.999999996068
      w: 8.73516211545e-05
  covariance: [0.0, 0.0, 0.0, 0.0, 0.0, 0.0, 0.0, 0.0, 0.0, 0.0, 0.0, 0.0, 0.0, 0.0, 0.0, 0.0, 0.0, 0.0, 0.0, 0.0, 0.0, 0.0, 0.0, 0.0, 0.0, 0.0, 0.0, 0.0, 0.0, 0.0, 0.0, 0.0, 0.0, 0.0, 0.0, 0.0]
twist: 
  twist: 
    linear: 
      x: 5.32084578536
      y: -0.00331620286689
      z: 0.000156511153916
    angular: 
      x: -2.82589020491e-05
      y: 0.00147099416729
      z: 0.0264812900214
  covariance: [0.0, 0.0, 0.0, 0.0, 0.0, 0.0, 0.0, 0.0, 0.0, 0.0, 0.0, 0.0, 0.0, 0.0, 0.0, 0.0, 0.0, 0.0, 0.0, 0.0, 0.0, 0.0, 0.0, 0.0, 0.0, 0.0, 0.0, 0.0, 0.0, 0.0, 0.0, 0.0, 0.0, 0.0, 0.0, 0.0]
---
header: 
  seq: 927
  stamp: 
    secs: 4707
    nsecs: 891373594
  frame_id: "map"
child_frame_id: "ego_vehicle"
pose: 
  pose: 
    position: 
      x: 131.745040894
      y: -302.570587158
      z: 0.256273388863
    orientation: 
      x: -2.68275353706e-06
      y: -1.59698198345e-06
      z: 0.999999941894
      w: 0.000340884608641
  covariance: [0.0, 0.0, 0.0, 0.0, 0.0, 0.0, 0.0, 0.0, 0.0, 0.0, 0.0, 0.0, 0.0, 0.0, 0.0, 0.0, 0.0, 0.0, 0.0, 0.0, 0.0, 0.0, 0.0, 0.0, 0.0, 0.0, 0.0, 0.0, 0.0, 0.0, 0.0, 0.0, 0.0, 0.0, 0.0, 0.0]
twist: 
  twist: 
    linear: 
      x: 5.3775195469
      y: 0.000523129272106
      z: 2.80754199033e-05
    angular: 
      x: 0.000104937235057
      y: -0.00145347309004
      z: -0.028704873487
  covariance: [0.0, 0.0, 0.0, 0.0, 0.0, 0.0, 0.0, 0.0, 0.0, 0.0, 0.0, 0.0, 0.0, 0.0, 0.0, 0.0, 0.0, 0.0, 0.0, 0.0, 0.0, 0.0, 0.0, 0.0, 0.0, 0.0, 0.0, 0.0, 0.0, 0.0, 0.0, 0.0, 0.0, 0.0, 0.0, 0.0]
---
header: 
  seq: 928
  stamp: 
    secs: 4707
    nsecs: 941373595
  frame_id: "map"
child_frame_id: "ego_vehicle"
pose: 
  pose: 
    position: 
      x: 131.478530884
      y: -302.570251465
      z: 0.256285041571
    orientation: 
      x: -1.65106120101e-05
      y: -1.0632986482e-06
      z: 0.999999992777
      w: 0.000119043282841
  covariance: [0.0, 0.0, 0.0, 0.0, 0.0, 0.0, 0.0, 0.0, 0.0, 0.0, 0.0, 0.0, 0.0, 0.0, 0.0, 0.0, 0.0, 0.0, 0.0, 0.0, 0.0, 0.0, 0.0, 0.0, 0.0, 0.0, 0.0, 0.0, 0.0, 0.0, 0.0, 0.0, 0.0, 0.0, 0.0, 0.0]
twist: 
  twist: 
    linear: 
      x: 5.30682100102
      y: -0.00193599476757
      z: 0.000176463676583
    angular: 
      x: -1.18818125125e-05
      y: 0.00154935911277
      z: 0.0277332961453
  covariance: [0.0, 0.0, 0.0, 0.0, 0.0, 0.0, 0.0, 0.0, 0.0, 0.0, 0.0, 0.0, 0.0, 0.0, 0.0, 0.0, 0.0, 0.0, 0.0, 0.0, 0.0, 0.0, 0.0, 0.0, 0.0, 0.0, 0.0, 0.0, 0.0, 0.0, 0.0, 0.0, 0.0, 0.0, 0.0, 0.0]
---
header: 
  seq: 929
  stamp: 
    secs: 4707
    nsecs: 991373596
  frame_id: "map"
child_frame_id: "ego_vehicle"
pose: 
  pose: 
    position: 
      x: 131.211303711
      y: -302.570281982
      z: 0.256275743246
    orientation: 
      x: -5.36471008597e-06
      y: -7.96984493332e-07
      z: 0.999999932988
      w: 0.000366051479365
  covariance: [0.0, 0.0, 0.0, 0.0, 0.0, 0.0, 0.0, 0.0, 0.0, 0.0, 0.0, 0.0, 0.0, 0.0, 0.0, 0.0, 0.0, 0.0, 0.0, 0.0, 0.0, 0.0, 0.0, 0.0, 0.0, 0.0, 0.0, 0.0, 0.0, 0.0, 0.0, 0.0, 0.0, 0.0, 0.0, 0.0]
twist: 
  twist: 
    linear: 
      x: 5.36337267616
      y: 0.000833088818437
      z: 5.7585820491e-05
    angular: 
      x: 2.0840901631e-05
      y: -0.00144700465146
      z: -0.0286615263791
  covariance: [0.0, 0.0, 0.0, 0.0, 0.0, 0.0, 0.0, 0.0, 0.0, 0.0, 0.0, 0.0, 0.0, 0.0, 0.0, 0.0, 0.0, 0.0, 0.0, 0.0, 0.0, 0.0, 0.0, 0.0, 0.0, 0.0, 0.0, 0.0, 0.0, 0.0, 0.0, 0.0, 0.0, 0.0, 0.0, 0.0]
---
header: 
  seq: 930
  stamp: 
    secs: 4708
    nsecs:  41373596
  frame_id: "map"
child_frame_id: "ego_vehicle"
pose: 
  pose: 
    position: 
      x: 130.945449829
      y: -302.569915771
      z: 0.256286323071
    orientation: 
      x: -1.78815837834e-05
      y: -1.32900159838e-06
      z: 0.999999989441
      w: 0.000144210148694
  covariance: [0.0, 0.0, 0.0, 0.0, 0.0, 0.0, 0.0, 0.0, 0.0, 0.0, 0.0, 0.0, 0.0, 0.0, 0.0, 0.0, 0.0, 0.0, 0.0, 0.0, 0.0, 0.0, 0.0, 0.0, 0.0, 0.0, 0.0, 0.0, 0.0, 0.0, 0.0, 0.0, 0.0, 0.0, 0.0, 0.0]
twist: 
  twist: 
    linear: 
      x: 5.29447534365
      y: -0.00182051271269
      z: 0.000189258714455
    angular: 
      x: -3.3197325405e-05
      y: 0.00147744232007
      z: 0.0274661977327
  covariance: [0.0, 0.0, 0.0, 0.0, 0.0, 0.0, 0.0, 0.0, 0.0, 0.0, 0.0, 0.0, 0.0, 0.0, 0.0, 0.0, 0.0, 0.0, 0.0, 0.0, 0.0, 0.0, 0.0, 0.0, 0.0, 0.0, 0.0, 0.0, 0.0, 0.0, 0.0, 0.0, 0.0, 0.0, 0.0, 0.0]
---
header: 
  seq: 931
  stamp: 
    secs: 4708
    nsecs:  91373597
  frame_id: "map"
child_frame_id: "ego_vehicle"
pose: 
  pose: 
    position: 
      x: 130.678695679
      y: -302.569946289
      z: 0.256274491549
    orientation: 
      x: -3.99392276639e-06
      y: -1.06371865714e-06
      z: 0.999999925123
      w: 0.000386957292474
  covariance: [0.0, 0.0, 0.0, 0.0, 0.0, 0.0, 0.0, 0.0, 0.0, 0.0, 0.0, 0.0, 0.0, 0.0, 0.0, 0.0, 0.0, 0.0, 0.0, 0.0, 0.0, 0.0, 0.0, 0.0, 0.0, 0.0, 0.0, 0.0, 0.0, 0.0, 0.0, 0.0, 0.0, 0.0, 0.0, 0.0]
twist: 
  twist: 
    linear: 
      x: 5.35486413762
      y: 0.000817475003098
      z: 4.22615977322e-05
    angular: 
      x: 1.48851091674e-05
      y: -0.00158251650864
      z: -0.0281564266695
  covariance: [0.0, 0.0, 0.0, 0.0, 0.0, 0.0, 0.0, 0.0, 0.0, 0.0, 0.0, 0.0, 0.0, 0.0, 0.0, 0.0, 0.0, 0.0, 0.0, 0.0, 0.0, 0.0, 0.0, 0.0, 0.0, 0.0, 0.0, 0.0, 0.0, 0.0, 0.0, 0.0, 0.0, 0.0, 0.0, 0.0]
---
header: 
  seq: 932
  stamp: 
    secs: 4708
    nsecs: 141373598
  frame_id: "map"
child_frame_id: "ego_vehicle"
pose: 
  pose: 
    position: 
      x: 130.41317749
      y: -302.569549561
      z: 0.256282657385
    orientation: 
      x: -1.35903761986e-05
      y: -2.92707505308e-06
      z: 0.999999984292
      w: 0.000176700697579
  covariance: [0.0, 0.0, 0.0, 0.0, 0.0, 0.0, 0.0, 0.0, 0.0, 0.0, 0.0, 0.0, 0.0, 0.0, 0.0, 0.0, 0.0, 0.0, 0.0, 0.0, 0.0, 0.0, 0.0, 0.0, 0.0, 0.0, 0.0, 0.0, 0.0, 0.0, 0.0, 0.0, 0.0, 0.0, 0.0, 0.0]
twist: 
  twist: 
    linear: 
      x: 5.28851770136
      y: -0.00240972683426
      z: 0.00014340311809
    angular: 
      x: -6.98047209802e-05
      y: 0.00138653203932
      z: 0.0267247195898
  covariance: [0.0, 0.0, 0.0, 0.0, 0.0, 0.0, 0.0, 0.0, 0.0, 0.0, 0.0, 0.0, 0.0, 0.0, 0.0, 0.0, 0.0, 0.0, 0.0, 0.0, 0.0, 0.0, 0.0, 0.0, 0.0, 0.0, 0.0, 0.0, 0.0, 0.0, 0.0, 0.0, 0.0, 0.0, 0.0, 0.0]
---
header: 
  seq: 933
  stamp: 
    secs: 4708
    nsecs: 191373599
  frame_id: "map"
child_frame_id: "ego_vehicle"
pose: 
  pose: 
    position: 
      x: 130.146682739
      y: -302.569549561
      z: 0.2562700212
    orientation: 
      x: 1.36952998744e-06
      y: -3.19638329802e-06
      z: 0.999999907214
      w: 0.000430766297377
  covariance: [0.0, 0.0, 0.0, 0.0, 0.0, 0.0, 0.0, 0.0, 0.0, 0.0, 0.0, 0.0, 0.0, 0.0, 0.0, 0.0, 0.0, 0.0, 0.0, 0.0, 0.0, 0.0, 0.0, 0.0, 0.0, 0.0, 0.0, 0.0, 0.0, 0.0, 0.0, 0.0, 0.0, 0.0, 0.0, 0.0]
twist: 
  twist: 
    linear: 
      x: 5.34957219202
      y: 7.85104218012e-05
      z: -1.46957790384e-05
    angular: 
      x: 9.39417720995e-06
      y: -0.00159045878842
      z: -0.0286648428469
  covariance: [0.0, 0.0, 0.0, 0.0, 0.0, 0.0, 0.0, 0.0, 0.0, 0.0, 0.0, 0.0, 0.0, 0.0, 0.0, 0.0, 0.0, 0.0, 0.0, 0.0, 0.0, 0.0, 0.0, 0.0, 0.0, 0.0, 0.0, 0.0, 0.0, 0.0, 0.0, 0.0, 0.0, 0.0, 0.0, 0.0]
---
header: 
  seq: 934
  stamp: 
    secs: 4708
    nsecs: 241373599
  frame_id: "map"
child_frame_id: "ego_vehicle"
pose: 
  pose: 
    position: 
      x: 129.881454468
      y: -302.569122314
      z: 0.256279200315
    orientation: 
      x: -9.59705910837e-06
      y: -3.1936551635e-06
      z: 0.999999975135
      w: 0.000222773392663
  covariance: [0.0, 0.0, 0.0, 0.0, 0.0, 0.0, 0.0, 0.0, 0.0, 0.0, 0.0, 0.0, 0.0, 0.0, 0.0, 0.0, 0.0, 0.0, 0.0, 0.0, 0.0, 0.0, 0.0, 0.0, 0.0, 0.0, 0.0, 0.0, 0.0, 0.0, 0.0, 0.0, 0.0, 0.0, 0.0, 0.0]
twist: 
  twist: 
    linear: 
      x: 5.28226063223
      y: -0.00251717890319
      z: 0.000103414298204
    angular: 
      x: -1.47826368355e-05
      y: 0.00144923491883
      z: 0.0268797613383
  covariance: [0.0, 0.0, 0.0, 0.0, 0.0, 0.0, 0.0, 0.0, 0.0, 0.0, 0.0, 0.0, 0.0, 0.0, 0.0, 0.0, 0.0, 0.0, 0.0, 0.0, 0.0, 0.0, 0.0, 0.0, 0.0, 0.0, 0.0, 0.0, 0.0, 0.0, 0.0, 0.0, 0.0, 0.0, 0.0, 0.0]
---
header: 
  seq: 935
  stamp: 
    secs: 4708
    nsecs: 291373600
  frame_id: "map"
child_frame_id: "ego_vehicle"
pose: 
  pose: 
    position: 
      x: 129.615325928
      y: -302.569122314
      z: 0.256267845631
    orientation: 
      x: 3.87290254387e-06
      y: -2.93132635471e-06
      z: 0.999999885983
      w: 0.000477504776649
  covariance: [0.0, 0.0, 0.0, 0.0, 0.0, 0.0, 0.0, 0.0, 0.0, 0.0, 0.0, 0.0, 0.0, 0.0, 0.0, 0.0, 0.0, 0.0, 0.0, 0.0, 0.0, 0.0, 0.0, 0.0, 0.0, 0.0, 0.0, 0.0, 0.0, 0.0, 0.0, 0.0, 0.0, 0.0, 0.0, 0.0]
twist: 
  twist: 
    linear: 
      x: 5.34288733904
      y: 0.000120072659743
      z: -4.11418627992e-05
    angular: 
      x: 2.38714786604e-05
      y: -0.00153348092503
      z: -0.0287541856597
  covariance: [0.0, 0.0, 0.0, 0.0, 0.0, 0.0, 0.0, 0.0, 0.0, 0.0, 0.0, 0.0, 0.0, 0.0, 0.0, 0.0, 0.0, 0.0, 0.0, 0.0, 0.0, 0.0, 0.0, 0.0, 0.0, 0.0, 0.0, 0.0, 0.0, 0.0, 0.0, 0.0, 0.0, 0.0, 0.0, 0.0]
---
header: 
  seq: 936
  stamp: 
    secs: 4708
    nsecs: 341373601
  frame_id: "map"
child_frame_id: "ego_vehicle"
pose: 
  pose: 
    position: 
      x: 129.35043335
      y: -302.568695068
      z: 0.256278008223
    orientation: 
      x: -8.28574796686e-06
      y: -2.66097254902e-06
      z: 0.9999999651
      w: 0.000264052396939
  covariance: [0.0, 0.0, 0.0, 0.0, 0.0, 0.0, 0.0, 0.0, 0.0, 0.0, 0.0, 0.0, 0.0, 0.0, 0.0, 0.0, 0.0, 0.0, 0.0, 0.0, 0.0, 0.0, 0.0, 0.0, 0.0, 0.0, 0.0, 0.0, 0.0, 0.0, 0.0, 0.0, 0.0, 0.0, 0.0, 0.0]
twist: 
  twist: 
    linear: 
      x: 5.27545881165
      y: -0.00221811814814
      z: 8.95773240722e-05
    angular: 
      x: 1.82480274052e-06
      y: 0.00148606573451
      z: 0.0271325078093
  covariance: [0.0, 0.0, 0.0, 0.0, 0.0, 0.0, 0.0, 0.0, 0.0, 0.0, 0.0, 0.0, 0.0, 0.0, 0.0, 0.0, 0.0, 0.0, 0.0, 0.0, 0.0, 0.0, 0.0, 0.0, 0.0, 0.0, 0.0, 0.0, 0.0, 0.0, 0.0, 0.0, 0.0, 0.0, 0.0, 0.0]
---
header: 
  seq: 937
  stamp: 
    secs: 4708
    nsecs: 391373601
  frame_id: "map"
child_frame_id: "ego_vehicle"
pose: 
  pose: 
    position: 
      x: 129.084609985
      y: -302.568695068
      z: 0.256267011166
    orientation: 
      x: 4.94609138185e-06
      y: -2.13306665735e-06
      z: 0.999999868371
      w: 0.000513057972028
  covariance: [0.0, 0.0, 0.0, 0.0, 0.0, 0.0, 0.0, 0.0, 0.0, 0.0, 0.0, 0.0, 0.0, 0.0, 0.0, 0.0, 0.0, 0.0, 0.0, 0.0, 0.0, 0.0, 0.0, 0.0, 0.0, 0.0, 0.0, 0.0, 0.0, 0.0, 0.0, 0.0, 0.0, 0.0, 0.0, 0.0]
twist: 
  twist: 
    linear: 
      x: 5.33662027265
      y: 0.000470932669573
      z: -5.11983114627e-05
    angular: 
      x: 2.47624262481e-05
      y: -0.00152867813247
      z: -0.0284976774736
  covariance: [0.0, 0.0, 0.0, 0.0, 0.0, 0.0, 0.0, 0.0, 0.0, 0.0, 0.0, 0.0, 0.0, 0.0, 0.0, 0.0, 0.0, 0.0, 0.0, 0.0, 0.0, 0.0, 0.0, 0.0, 0.0, 0.0, 0.0, 0.0, 0.0, 0.0, 0.0, 0.0, 0.0, 0.0, 0.0, 0.0]
---
header: 
  seq: 938
  stamp: 
    secs: 4708
    nsecs: 441373602
  frame_id: "map"
child_frame_id: "ego_vehicle"
pose: 
  pose: 
    position: 
      x: 128.820022583
      y: -302.568267822
      z: 0.256277054548
    orientation: 
      x: -6.91485366115e-06
      y: -2.39478097885e-06
      z: 0.99999995541
      w: 0.000298540337183
  covariance: [0.0, 0.0, 0.0, 0.0, 0.0, 0.0, 0.0, 0.0, 0.0, 0.0, 0.0, 0.0, 0.0, 0.0, 0.0, 0.0, 0.0, 0.0, 0.0, 0.0, 0.0, 0.0, 0.0, 0.0, 0.0, 0.0, 0.0, 0.0, 0.0, 0.0, 0.0, 0.0, 0.0, 0.0, 0.0, 0.0]
twist: 
  twist: 
    linear: 
      x: 5.2698343426
      y: -0.00212621434565
      z: 7.48431447612e-05
    angular: 
      x: -1.94473868236e-05
      y: 0.00147730552097
      z: 0.0270891003642
  covariance: [0.0, 0.0, 0.0, 0.0, 0.0, 0.0, 0.0, 0.0, 0.0, 0.0, 0.0, 0.0, 0.0, 0.0, 0.0, 0.0, 0.0, 0.0, 0.0, 0.0, 0.0, 0.0, 0.0, 0.0, 0.0, 0.0, 0.0, 0.0, 0.0, 0.0, 0.0, 0.0, 0.0, 0.0, 0.0, 0.0]
---
header: 
  seq: 939
  stamp: 
    secs: 4708
    nsecs: 491373603
  frame_id: "map"
child_frame_id: "ego_vehicle"
pose: 
  pose: 
    position: 
      x: 128.554443359
      y: -302.568206787
      z: 0.256265759468
    orientation: 
      x: 6.67455541156e-06
      y: -2.1341734042e-06
      z: 0.999999850873
      w: 0.00054608116859
  covariance: [0.0, 0.0, 0.0, 0.0, 0.0, 0.0, 0.0, 0.0, 0.0, 0.0, 0.0, 0.0, 0.0, 0.0, 0.0, 0.0, 0.0, 0.0, 0.0, 0.0, 0.0, 0.0, 0.0, 0.0, 0.0, 0.0, 0.0, 0.0, 0.0, 0.0, 0.0, 0.0, 0.0, 0.0, 0.0, 0.0]
twist: 
  twist: 
    linear: 
      x: 5.33220842631
      y: 0.000481442610547
      z: -6.99493607163e-05
    angular: 
      x: 1.52359667027e-05
      y: -0.00155641271858
      z: -0.028339762424
  covariance: [0.0, 0.0, 0.0, 0.0, 0.0, 0.0, 0.0, 0.0, 0.0, 0.0, 0.0, 0.0, 0.0, 0.0, 0.0, 0.0, 0.0, 0.0, 0.0, 0.0, 0.0, 0.0, 0.0, 0.0, 0.0, 0.0, 0.0, 0.0, 0.0, 0.0, 0.0, 0.0, 0.0, 0.0, 0.0, 0.0]
---
header: 
  seq: 940
  stamp: 
    secs: 4708
    nsecs: 541373604
  frame_id: "map"
child_frame_id: "ego_vehicle"
pose: 
  pose: 
    position: 
      x: 128.290023804
      y: -302.567718506
      z: 0.256274968386
    orientation: 
      x: -4.53075135816e-06
      y: -2.39533529309e-06
      z: 0.999999944444
      w: 0.000333294593391
  covariance: [0.0, 0.0, 0.0, 0.0, 0.0, 0.0, 0.0, 0.0, 0.0, 0.0, 0.0, 0.0, 0.0, 0.0, 0.0, 0.0, 0.0, 0.0, 0.0, 0.0, 0.0, 0.0, 0.0, 0.0, 0.0, 0.0, 0.0, 0.0, 0.0, 0.0, 0.0, 0.0, 0.0, 0.0, 0.0, 0.0]
twist: 
  twist: 
    linear: 
      x: 5.26674481263
      y: -0.00212014556514
      z: 4.70757189603e-05
    angular: 
      x: -2.00490382975e-05
      y: 0.00144520714776
      z: 0.0268680080594
  covariance: [0.0, 0.0, 0.0, 0.0, 0.0, 0.0, 0.0, 0.0, 0.0, 0.0, 0.0, 0.0, 0.0, 0.0, 0.0, 0.0, 0.0, 0.0, 0.0, 0.0, 0.0, 0.0, 0.0, 0.0, 0.0, 0.0, 0.0, 0.0, 0.0, 0.0, 0.0, 0.0, 0.0, 0.0, 0.0, 0.0]
---
header: 
  seq: 941
  stamp: 
    secs: 4708
    nsecs: 591373604
  frame_id: "map"
child_frame_id: "ego_vehicle"
pose: 
  pose: 
    position: 
      x: 128.024536133
      y: -302.567657471
      z: 0.25626257062
    orientation: 
      x: 1.01315538119e-05
      y: -2.13639607607e-06
      z: 0.999999832265
      w: 0.000579104368227
  covariance: [0.0, 0.0, 0.0, 0.0, 0.0, 0.0, 0.0, 0.0, 0.0, 0.0, 0.0, 0.0, 0.0, 0.0, 0.0, 0.0, 0.0, 0.0, 0.0, 0.0, 0.0, 0.0, 0.0, 0.0, 0.0, 0.0, 0.0, 0.0, 0.0, 0.0, 0.0, 0.0, 0.0, 0.0, 0.0, 0.0]
twist: 
  twist: 
    linear: 
      x: 5.33086224012
      y: 0.000447734935015
      z: -0.000108962060271
    angular: 
      x: 1.40647524566e-05
      y: -0.00159546027777
      z: -0.0280819060126
  covariance: [0.0, 0.0, 0.0, 0.0, 0.0, 0.0, 0.0, 0.0, 0.0, 0.0, 0.0, 0.0, 0.0, 0.0, 0.0, 0.0, 0.0, 0.0, 0.0, 0.0, 0.0, 0.0, 0.0, 0.0, 0.0, 0.0, 0.0, 0.0, 0.0, 0.0, 0.0, 0.0, 0.0, 0.0, 0.0, 0.0]
---
header: 
  seq: 942
  stamp: 
    secs: 4708
    nsecs: 641373605
  frame_id: "map"
child_frame_id: "ego_vehicle"
pose: 
  pose: 
    position: 
      x: 127.760124207
      y: -302.567230225
      z: 0.256271392107
    orientation: 
      x: 8.54022415336e-10
      y: 2.5240453096e-06
      z: 0.999999942755
      w: 0.000338354610038
  covariance: [0.0, 0.0, 0.0, 0.0, 0.0, 0.0, 0.0, 0.0, 0.0, 0.0, 0.0, 0.0, 0.0, 0.0, 0.0, 0.0, 0.0, 0.0, 0.0, 0.0, 0.0, 0.0, 0.0, 0.0, 0.0, 0.0, 0.0, 0.0, 0.0, 0.0, 0.0, 0.0, 0.0, 0.0, 0.0, 0.0]
twist: 
  twist: 
    linear: 
      x: 5.26724353012
      y: 0.000158927289465
      z: -1.79072975232e-06
    angular: 
      x: 0.000140623943139
      y: 0.00140852444441
      z: 0.0280812235776
  covariance: [0.0, 0.0, 0.0, 0.0, 0.0, 0.0, 0.0, 0.0, 0.0, 0.0, 0.0, 0.0, 0.0, 0.0, 0.0, 0.0, 0.0, 0.0, 0.0, 0.0, 0.0, 0.0, 0.0, 0.0, 0.0, 0.0, 0.0, 0.0, 0.0, 0.0, 0.0, 0.0, 0.0, 0.0, 0.0, 0.0]
---
header: 
  seq: 943
  stamp: 
    secs: 4708
    nsecs: 691373606
  frame_id: "map"
child_frame_id: "ego_vehicle"
pose: 
  pose: 
    position: 
      x: 127.494560242
      y: -302.56729126
      z: 0.256258189678
    orientation: 
      x: 1.53802270949e-05
      y: 4.1409529827e-06
      z: 0.999999855245
      w: 0.000537825292338
  covariance: [0.0, 0.0, 0.0, 0.0, 0.0, 0.0, 0.0, 0.0, 0.0, 0.0, 0.0, 0.0, 0.0, 0.0, 0.0, 0.0, 0.0, 0.0, 0.0, 0.0, 0.0, 0.0, 0.0, 0.0, 0.0, 0.0, 0.0, 0.0, 0.0, 0.0, 0.0, 0.0, 0.0, 0.0, 0.0, 0.0]
twist: 
  twist: 
    linear: 
      x: 5.3334347339
      y: 0.00316799884571
      z: -0.000163102907388
    angular: 
      x: 3.70109374636e-05
      y: -0.00163119071897
      z: -0.025928777722
  covariance: [0.0, 0.0, 0.0, 0.0, 0.0, 0.0, 0.0, 0.0, 0.0, 0.0, 0.0, 0.0, 0.0, 0.0, 0.0, 0.0, 0.0, 0.0, 0.0, 0.0, 0.0, 0.0, 0.0, 0.0, 0.0, 0.0, 0.0, 0.0, 0.0, 0.0, 0.0, 0.0, 0.0, 0.0, 0.0, 0.0]
---
header: 
  seq: 944
  stamp: 
    secs: 4708
    nsecs: 741373607
  frame_id: "map"
child_frame_id: "ego_vehicle"
pose: 
  pose: 
    position: 
      x: 127.229949951
      y: -302.566864014
      z: 0.256266117096
    orientation: 
      x: 6.0193829111e-06
      y: -2.13246627879e-06
      z: 0.999999948188
      w: 0.000321843024999
  covariance: [0.0, 0.0, 0.0, 0.0, 0.0, 0.0, 0.0, 0.0, 0.0, 0.0, 0.0, 0.0, 0.0, 0.0, 0.0, 0.0, 0.0, 0.0, 0.0, 0.0, 0.0, 0.0, 0.0, 0.0, 0.0, 0.0, 0.0, 0.0, 0.0, 0.0, 0.0, 0.0, 0.0, 0.0, 0.0, 0.0]
twist: 
  twist: 
    linear: 
      x: 5.27200791771
      y: -0.00196971475081
      z: -6.19271960582e-05
    angular: 
      x: -0.000214698036114
      y: 0.00137762228305
      z: 0.0261240311224
  covariance: [0.0, 0.0, 0.0, 0.0, 0.0, 0.0, 0.0, 0.0, 0.0, 0.0, 0.0, 0.0, 0.0, 0.0, 0.0, 0.0, 0.0, 0.0, 0.0, 0.0, 0.0, 0.0, 0.0, 0.0, 0.0, 0.0, 0.0, 0.0, 0.0, 0.0, 0.0, 0.0, 0.0, 0.0, 0.0, 0.0]
---
header: 
  seq: 945
  stamp: 
    secs: 4708
    nsecs: 791373607
  frame_id: "map"
child_frame_id: "ego_vehicle"
pose: 
  pose: 
    position: 
      x: 126.964073181
      y: -302.566772461
      z: 0.25625243783
    orientation: 
      x: 2.2170501926e-05
      y: -4.27365834065e-06
      z: 0.999999838252
      w: 0.000568318640365
  covariance: [0.0, 0.0, 0.0, 0.0, 0.0, 0.0, 0.0, 0.0, 0.0, 0.0, 0.0, 0.0, 0.0, 0.0, 0.0, 0.0, 0.0, 0.0, 0.0, 0.0, 0.0, 0.0, 0.0, 0.0, 0.0, 0.0, 0.0, 0.0, 0.0, 0.0, 0.0, 0.0, 0.0, 0.0, 0.0, 0.0]
twist: 
  twist: 
    linear: 
      x: 5.34043565841
      y: -4.12490607611e-05
      z: -0.000237994444449
    angular: 
      x: -3.90551054051e-05
      y: -0.00165826653682
      z: -0.0276022436526
  covariance: [0.0, 0.0, 0.0, 0.0, 0.0, 0.0, 0.0, 0.0, 0.0, 0.0, 0.0, 0.0, 0.0, 0.0, 0.0, 0.0, 0.0, 0.0, 0.0, 0.0, 0.0, 0.0, 0.0, 0.0, 0.0, 0.0, 0.0, 0.0, 0.0, 0.0, 0.0, 0.0, 0.0, 0.0, 0.0, 0.0]
---
header: 
  seq: 946
  stamp: 
    secs: 4708
    nsecs: 841373608
  frame_id: "map"
child_frame_id: "ego_vehicle"
pose: 
  pose: 
    position: 
      x: 126.699012756
      y: -302.566314697
      z: 0.256259828806
    orientation: 
      x: 1.35285548041e-05
      y: -4.5324472929e-06
      z: 0.999999929546
      w: 0.000375106291959
  covariance: [0.0, 0.0, 0.0, 0.0, 0.0, 0.0, 0.0, 0.0, 0.0, 0.0, 0.0, 0.0, 0.0, 0.0, 0.0, 0.0, 0.0, 0.0, 0.0, 0.0, 0.0, 0.0, 0.0, 0.0, 0.0, 0.0, 0.0, 0.0, 0.0, 0.0, 0.0, 0.0, 0.0, 0.0, 0.0, 0.0]
twist: 
  twist: 
    linear: 
      x: 5.28172649237
      y: -0.00264665178828
      z: -0.000144105834683
    angular: 
      x: -1.09048748032e-05
      y: 0.00134515200355
      z: 0.0252267830228
  covariance: [0.0, 0.0, 0.0, 0.0, 0.0, 0.0, 0.0, 0.0, 0.0, 0.0, 0.0, 0.0, 0.0, 0.0, 0.0, 0.0, 0.0, 0.0, 0.0, 0.0, 0.0, 0.0, 0.0, 0.0, 0.0, 0.0, 0.0, 0.0, 0.0, 0.0, 0.0, 0.0, 0.0, 0.0, 0.0, 0.0]
---
header: 
  seq: 947
  stamp: 
    secs: 4708
    nsecs: 891373609
  frame_id: "map"
child_frame_id: "ego_vehicle"
pose: 
  pose: 
    position: 
      x: 126.432563782
      y: -302.566131592
      z: 0.256245672703
    orientation: 
      x: 3.02763446527e-05
      y: -4.5461450619e-06
      z: 0.999999807341
      w: 0.000619983998847
  covariance: [0.0, 0.0, 0.0, 0.0, 0.0, 0.0, 0.0, 0.0, 0.0, 0.0, 0.0, 0.0, 0.0, 0.0, 0.0, 0.0, 0.0, 0.0, 0.0, 0.0, 0.0, 0.0, 0.0, 0.0, 0.0, 0.0, 0.0, 0.0, 0.0, 0.0, 0.0, 0.0, 0.0, 0.0, 0.0, 0.0]
twist: 
  twist: 
    linear: 
      x: 5.3524061617
      y: -0.00026075276163
      z: -0.000322887613942
    angular: 
      x: 1.58313946792e-05
      y: -0.00167344902574
      z: -0.027166315391
  covariance: [0.0, 0.0, 0.0, 0.0, 0.0, 0.0, 0.0, 0.0, 0.0, 0.0, 0.0, 0.0, 0.0, 0.0, 0.0, 0.0, 0.0, 0.0, 0.0, 0.0, 0.0, 0.0, 0.0, 0.0, 0.0, 0.0, 0.0, 0.0, 0.0, 0.0, 0.0, 0.0, 0.0, 0.0, 0.0, 0.0]
---
header: 
  seq: 948
  stamp: 
    secs: 4708
    nsecs: 941373610
  frame_id: "map"
child_frame_id: "ego_vehicle"
pose: 
  pose: 
    position: 
      x: 126.1668396
      y: -302.565612793
      z: 0.256252765656
    orientation: 
      x: 2.18130871279e-05
      y: -5.06953120567e-06
      z: 0.999999904428
      w: 0.000436625357121
  covariance: [0.0, 0.0, 0.0, 0.0, 0.0, 0.0, 0.0, 0.0, 0.0, 0.0, 0.0, 0.0, 0.0, 0.0, 0.0, 0.0, 0.0, 0.0, 0.0, 0.0, 0.0, 0.0, 0.0, 0.0, 0.0, 0.0, 0.0, 0.0, 0.0, 0.0, 0.0, 0.0, 0.0, 0.0, 0.0, 0.0]
twist: 
  twist: 
    linear: 
      x: 5.29585640208
      y: -0.00306951105342
      z: -0.000231383783783
    angular: 
      x: -2.48938653739e-05
      y: 0.00134227506137
      z: 0.0245070762218
  covariance: [0.0, 0.0, 0.0, 0.0, 0.0, 0.0, 0.0, 0.0, 0.0, 0.0, 0.0, 0.0, 0.0, 0.0, 0.0, 0.0, 0.0, 0.0, 0.0, 0.0, 0.0, 0.0, 0.0, 0.0, 0.0, 0.0, 0.0, 0.0, 0.0, 0.0, 0.0, 0.0, 0.0, 0.0, 0.0, 0.0]
---
header: 
  seq: 949
  stamp: 
    secs: 4708
    nsecs: 991373610
  frame_id: "map"
child_frame_id: "ego_vehicle"
pose: 
  pose: 
    position: 
      x: 125.899620056
      y: -302.565429688
      z: 0.256238818169
    orientation: 
      x: 3.82627011212e-05
      y: -5.08623166517e-06
      z: 0.999999764393
      w: 0.000685364645993
  covariance: [0.0, 0.0, 0.0, 0.0, 0.0, 0.0, 0.0, 0.0, 0.0, 0.0, 0.0, 0.0, 0.0, 0.0, 0.0, 0.0, 0.0, 0.0, 0.0, 0.0, 0.0, 0.0, 0.0, 0.0, 0.0, 0.0, 0.0, 0.0, 0.0, 0.0, 0.0, 0.0, 0.0, 0.0, 0.0, 0.0]
twist: 
  twist: 
    linear: 
      x: 5.36807763152
      y: -0.000764599897209
      z: -0.000410157781563
    angular: 
      x: 8.63671378554e-06
      y: -0.00165678138239
      z: -0.0270369273739
  covariance: [0.0, 0.0, 0.0, 0.0, 0.0, 0.0, 0.0, 0.0, 0.0, 0.0, 0.0, 0.0, 0.0, 0.0, 0.0, 0.0, 0.0, 0.0, 0.0, 0.0, 0.0, 0.0, 0.0, 0.0, 0.0, 0.0, 0.0, 0.0, 0.0, 0.0, 0.0, 0.0, 0.0, 0.0, 0.0, 0.0]
---
header: 
  seq: 950
  stamp: 
    secs: 4709
    nsecs:  41373611
  frame_id: "map"
child_frame_id: "ego_vehicle"
pose: 
  pose: 
    position: 
      x: 125.633041382
      y: -302.564910889
      z: 0.256246268749
    orientation: 
      x: 2.95033828827e-05
      y: -1.87864645691e-06
      z: 0.999999879894
      w: 0.000489222727521
  covariance: [0.0, 0.0, 0.0, 0.0, 0.0, 0.0, 0.0, 0.0, 0.0, 0.0, 0.0, 0.0, 0.0, 0.0, 0.0, 0.0, 0.0, 0.0, 0.0, 0.0, 0.0, 0.0, 0.0, 0.0, 0.0, 0.0, 0.0, 0.0, 0.0, 0.0, 0.0, 0.0, 0.0, 0.0, 0.0, 0.0]
twist: 
  twist: 
    linear: 
      x: 5.31342311321
      y: -0.00175154350347
      z: -0.000312596102679
    angular: 
      x: 0.000100929676634
      y: 0.00135347984352
      z: 0.0249846246977
  covariance: [0.0, 0.0, 0.0, 0.0, 0.0, 0.0, 0.0, 0.0, 0.0, 0.0, 0.0, 0.0, 0.0, 0.0, 0.0, 0.0, 0.0, 0.0, 0.0, 0.0, 0.0, 0.0, 0.0, 0.0, 0.0, 0.0, 0.0, 0.0, 0.0, 0.0, 0.0, 0.0, 0.0, 0.0, 0.0, 0.0]
---
header: 
  seq: 951
  stamp: 
    secs: 4709
    nsecs:  91373612
  frame_id: "map"
child_frame_id: "ego_vehicle"
pose: 
  pose: 
    position: 
      x: 125.364929199
      y: -302.564727783
      z: 0.2562327981
    orientation: 
      x: 4.53585554913e-05
      y: -8.31050435127e-07
      z: 0.999999748526
      w: 0.000707735036117
  covariance: [0.0, 0.0, 0.0, 0.0, 0.0, 0.0, 0.0, 0.0, 0.0, 0.0, 0.0, 0.0, 0.0, 0.0, 0.0, 0.0, 0.0, 0.0, 0.0, 0.0, 0.0, 0.0, 0.0, 0.0, 0.0, 0.0, 0.0, 0.0, 0.0, 0.0, 0.0, 0.0, 0.0, 0.0, 0.0, 0.0]
twist: 
  twist: 
    linear: 
      x: 5.38679056339
      y: 0.000898492527652
      z: -0.000487505882198
    angular: 
      x: 2.66599407158e-05
      y: -0.00162877618894
      z: -0.025523013921
  covariance: [0.0, 0.0, 0.0, 0.0, 0.0, 0.0, 0.0, 0.0, 0.0, 0.0, 0.0, 0.0, 0.0, 0.0, 0.0, 0.0, 0.0, 0.0, 0.0, 0.0, 0.0, 0.0, 0.0, 0.0, 0.0, 0.0, 0.0, 0.0, 0.0, 0.0, 0.0, 0.0, 0.0, 0.0, 0.0, 0.0]
---
header: 
  seq: 952
  stamp: 
    secs: 4709
    nsecs: 141373613
  frame_id: "map"
child_frame_id: "ego_vehicle"
pose: 
  pose: 
    position: 
      x: 125.097373962
      y: -302.564239502
      z: 0.256240695715
    orientation: 
      x: 3.61197305439e-05
      y: -1.35000591528e-06
      z: 0.999999869231
      w: 0.000510128532443
  covariance: [0.0, 0.0, 0.0, 0.0, 0.0, 0.0, 0.0, 0.0, 0.0, 0.0, 0.0, 0.0, 0.0, 0.0, 0.0, 0.0, 0.0, 0.0, 0.0, 0.0, 0.0, 0.0, 0.0, 0.0, 0.0, 0.0, 0.0, 0.0, 0.0, 0.0, 0.0, 0.0, 0.0, 0.0, 0.0, 0.0]
twist: 
  twist: 
    linear: 
      x: 5.3336856319
      y: -0.00172814185888
      z: -0.000383669474185
    angular: 
      x: -3.00572530211e-05
      y: 0.00137031718537
      z: 0.024553311195
  covariance: [0.0, 0.0, 0.0, 0.0, 0.0, 0.0, 0.0, 0.0, 0.0, 0.0, 0.0, 0.0, 0.0, 0.0, 0.0, 0.0, 0.0, 0.0, 0.0, 0.0, 0.0, 0.0, 0.0, 0.0, 0.0, 0.0, 0.0, 0.0, 0.0, 0.0, 0.0, 0.0, 0.0, 0.0, 0.0, 0.0]
---
header: 
  seq: 953
  stamp: 
    secs: 4709
    nsecs: 191373613
  frame_id: "map"
child_frame_id: "ego_vehicle"
pose: 
  pose: 
    position: 
      x: 124.828201294
      y: -302.564056396
      z: 0.256227791309
    orientation: 
      x: 5.12597853648e-05
      y: -3.03352163512e-07
      z: 0.999999737672
      w: 0.000722515553578
  covariance: [0.0, 0.0, 0.0, 0.0, 0.0, 0.0, 0.0, 0.0, 0.0, 0.0, 0.0, 0.0, 0.0, 0.0, 0.0, 0.0, 0.0, 0.0, 0.0, 0.0, 0.0, 0.0, 0.0, 0.0, 0.0, 0.0, 0.0, 0.0, 0.0, 0.0, 0.0, 0.0, 0.0, 0.0, 0.0, 0.0]
twist: 
  twist: 
    linear: 
      x: 5.40772206144
      y: 0.00120251747268
      z: -0.000554891477974
    angular: 
      x: 3.61871032746e-05
      y: -0.00159412453603
      z: -0.0249791714593
  covariance: [0.0, 0.0, 0.0, 0.0, 0.0, 0.0, 0.0, 0.0, 0.0, 0.0, 0.0, 0.0, 0.0, 0.0, 0.0, 0.0, 0.0, 0.0, 0.0, 0.0, 0.0, 0.0, 0.0, 0.0, 0.0, 0.0, 0.0, 0.0, 0.0, 0.0, 0.0, 0.0, 0.0, 0.0, 0.0, 0.0]
---
header: 
  seq: 954
  stamp: 
    secs: 4709
    nsecs: 241373614
  frame_id: "map"
child_frame_id: "ego_vehicle"
pose: 
  pose: 
    position: 
      x: 124.559547424
      y: -302.563537598
      z: 0.256236255169
    orientation: 
      x: 4.13656164293e-05
      y: -2.13771902956e-08
      z: 0.99999986561
      w: 0.000516786386085
  covariance: [0.0, 0.0, 0.0, 0.0, 0.0, 0.0, 0.0, 0.0, 0.0, 0.0, 0.0, 0.0, 0.0, 0.0, 0.0, 0.0, 0.0, 0.0, 0.0, 0.0, 0.0, 0.0, 0.0, 0.0, 0.0, 0.0, 0.0, 0.0, 0.0, 0.0, 0.0, 0.0, 0.0, 0.0, 0.0, 0.0]
twist: 
  twist: 
    linear: 
      x: 5.35580354927
      y: -0.000998213384718
      z: -0.000441184938086
    angular: 
      x: 2.12825842828e-06
      y: 0.00139087450033
      z: 0.0247012165041
  covariance: [0.0, 0.0, 0.0, 0.0, 0.0, 0.0, 0.0, 0.0, 0.0, 0.0, 0.0, 0.0, 0.0, 0.0, 0.0, 0.0, 0.0, 0.0, 0.0, 0.0, 0.0, 0.0, 0.0, 0.0, 0.0, 0.0, 0.0, 0.0, 0.0, 0.0, 0.0, 0.0, 0.0, 0.0, 0.0, 0.0]
---
header: 
  seq: 955
  stamp: 
    secs: 4709
    nsecs: 291373615
  frame_id: "map"
child_frame_id: "ego_vehicle"
pose: 
  pose: 
    position: 
      x: 124.289276123
      y: -302.563354492
      z: 0.256223976612
    orientation: 
      x: 5.57303251028e-05
      y: -4.02660364949e-08
      z: 0.999999737433
      w: 0.000722515539754
  covariance: [0.0, 0.0, 0.0, 0.0, 0.0, 0.0, 0.0, 0.0, 0.0, 0.0, 0.0, 0.0, 0.0, 0.0, 0.0, 0.0, 0.0, 0.0, 0.0, 0.0, 0.0, 0.0, 0.0, 0.0, 0.0, 0.0, 0.0, 0.0, 0.0, 0.0, 0.0, 0.0, 0.0, 0.0, 0.0, 0.0]
twist: 
  twist: 
    linear: 
      x: 5.43006263985
      y: 0.00135070913177
      z: -0.000605695746318
    angular: 
      x: -3.6686157967e-06
      y: -0.00155626395607
      z: -0.0245974780572
  covariance: [0.0, 0.0, 0.0, 0.0, 0.0, 0.0, 0.0, 0.0, 0.0, 0.0, 0.0, 0.0, 0.0, 0.0, 0.0, 0.0, 0.0, 0.0, 0.0, 0.0, 0.0, 0.0, 0.0, 0.0, 0.0, 0.0, 0.0, 0.0, 0.0, 0.0, 0.0, 0.0, 0.0, 0.0, 0.0, 0.0]
---
header: 
  seq: 956
  stamp: 
    secs: 4709
    nsecs: 341373616
  frame_id: "map"
child_frame_id: "ego_vehicle"
pose: 
  pose: 
    position: 
      x: 124.019493103
      y: -302.562835693
      z: 0.25623306632
    orientation: 
      x: 4.5120568989e-05
      y: -2.89723918405e-07
      z: 0.999999864414
      w: 0.000518783768565
  covariance: [0.0, 0.0, 0.0, 0.0, 0.0, 0.0, 0.0, 0.0, 0.0, 0.0, 0.0, 0.0, 0.0, 0.0, 0.0, 0.0, 0.0, 0.0, 0.0, 0.0, 0.0, 0.0, 0.0, 0.0, 0.0, 0.0, 0.0, 0.0, 0.0, 0.0, 0.0, 0.0, 0.0, 0.0, 0.0, 0.0]
twist: 
  twist: 
    linear: 
      x: 5.37893490267
      y: -0.000948107820518
      z: -0.000485646846162
    angular: 
      x: -6.68243352478e-06
      y: 0.00141166952323
      z: 0.024450097058
  covariance: [0.0, 0.0, 0.0, 0.0, 0.0, 0.0, 0.0, 0.0, 0.0, 0.0, 0.0, 0.0, 0.0, 0.0, 0.0, 0.0, 0.0, 0.0, 0.0, 0.0, 0.0, 0.0, 0.0, 0.0, 0.0, 0.0, 0.0, 0.0, 0.0, 0.0, 0.0, 0.0, 0.0, 0.0, 0.0, 0.0]
---
header: 
  seq: 957
  stamp: 
    secs: 4709
    nsecs: 391373616
  frame_id: "map"
child_frame_id: "ego_vehicle"
pose: 
  pose: 
    position: 
      x: 123.748069763
      y: -302.562652588
      z: 0.256221503019
    orientation: 
      x: 5.87103643961e-05
      y: -3.08704021049e-07
      z: 0.999999737647
      w: 0.000721982923188
  covariance: [0.0, 0.0, 0.0, 0.0, 0.0, 0.0, 0.0, 0.0, 0.0, 0.0, 0.0, 0.0, 0.0, 0.0, 0.0, 0.0, 0.0, 0.0, 0.0, 0.0, 0.0, 0.0, 0.0, 0.0, 0.0, 0.0, 0.0, 0.0, 0.0, 0.0, 0.0, 0.0, 0.0, 0.0, 0.0, 0.0]
twist: 
  twist: 
    linear: 
      x: 5.45299374171
      y: 0.00135772286611
      z: -0.000641398936119
    angular: 
      x: -3.80524929756e-06
      y: -0.00151686386614
      z: -0.024355438326
  covariance: [0.0, 0.0, 0.0, 0.0, 0.0, 0.0, 0.0, 0.0, 0.0, 0.0, 0.0, 0.0, 0.0, 0.0, 0.0, 0.0, 0.0, 0.0, 0.0, 0.0, 0.0, 0.0, 0.0, 0.0, 0.0, 0.0, 0.0, 0.0, 0.0, 0.0, 0.0, 0.0, 0.0, 0.0, 0.0, 0.0]
---
header: 
  seq: 958
  stamp: 
    secs: 4709
    nsecs: 441373617
  frame_id: "map"
child_frame_id: "ego_vehicle"
pose: 
  pose: 
    position: 
      x: 123.477119446
      y: -302.562194824
      z: 0.256231069565
    orientation: 
      x: 4.74460826974e-05
      y: 1.54316744358e-06
      z: 0.999999870315
      w: 0.000507065774893
  covariance: [0.0, 0.0, 0.0, 0.0, 0.0, 0.0, 0.0, 0.0, 0.0, 0.0, 0.0, 0.0, 0.0, 0.0, 0.0, 0.0, 0.0, 0.0, 0.0, 0.0, 0.0, 0.0, 0.0, 0.0, 0.0, 0.0, 0.0, 0.0, 0.0, 0.0, 0.0, 0.0, 0.0, 0.0, 0.0, 0.0]
twist: 
  twist: 
    linear: 
      x: 5.40231215047
      y: 2.07683462576e-05
      z: -0.000511710980265
    angular: 
      x: 6.04644888744e-05
      y: 0.00143098758403
      z: 0.0248994347518
  covariance: [0.0, 0.0, 0.0, 0.0, 0.0, 0.0, 0.0, 0.0, 0.0, 0.0, 0.0, 0.0, 0.0, 0.0, 0.0, 0.0, 0.0, 0.0, 0.0, 0.0, 0.0, 0.0, 0.0, 0.0, 0.0, 0.0, 0.0, 0.0, 0.0, 0.0, 0.0, 0.0, 0.0, 0.0, 0.0, 0.0]
---
header: 
  seq: 959
  stamp: 
    secs: 4709
    nsecs: 491373618
  frame_id: "map"
child_frame_id: "ego_vehicle"
pose: 
  pose: 
    position: 
      x: 123.204536438
      y: -302.562103271
      z: 0.256220191717
    orientation: 
      x: 6.02021891598e-05
      y: 2.15497246423e-06
      z: 0.99999976021
      w: 0.000689891692176
  covariance: [0.0, 0.0, 0.0, 0.0, 0.0, 0.0, 0.0, 0.0, 0.0, 0.0, 0.0, 0.0, 0.0, 0.0, 0.0, 0.0, 0.0, 0.0, 0.0, 0.0, 0.0, 0.0, 0.0, 0.0, 0.0, 0.0, 0.0, 0.0, 0.0, 0.0, 0.0, 0.0, 0.0, 0.0, 0.0, 0.0]
twist: 
  twist: 
    linear: 
      x: 5.47584559164
      y: 0.00252766852633
      z: -0.000658482135065
    angular: 
      x: 1.05236495268e-05
      y: -0.00147933319045
      z: -0.023403098162
  covariance: [0.0, 0.0, 0.0, 0.0, 0.0, 0.0, 0.0, 0.0, 0.0, 0.0, 0.0, 0.0, 0.0, 0.0, 0.0, 0.0, 0.0, 0.0, 0.0, 0.0, 0.0, 0.0, 0.0, 0.0, 0.0, 0.0, 0.0, 0.0, 0.0, 0.0, 0.0, 0.0, 0.0, 0.0, 0.0, 0.0]
---
header: 
  seq: 960
  stamp: 
    secs: 4709
    nsecs: 541373619
  frame_id: "map"
child_frame_id: "ego_vehicle"
pose: 
  pose: 
    position: 
      x: 122.932449341
      y: -302.561584473
      z: 0.256230324507
    orientation: 
      x: 4.83980445534e-05
      y: -1.88809638434e-06
      z: 0.999999877064
      w: 0.00049348381961
  covariance: [0.0, 0.0, 0.0, 0.0, 0.0, 0.0, 0.0, 0.0, 0.0, 0.0, 0.0, 0.0, 0.0, 0.0, 0.0, 0.0, 0.0, 0.0, 0.0, 0.0, 0.0, 0.0, 0.0, 0.0, 0.0, 0.0, 0.0, 0.0, 0.0, 0.0, 0.0, 0.0, 0.0, 0.0, 0.0, 0.0]
twist: 
  twist: 
    linear: 
      x: 5.42532996641
      y: -0.00149830625587
      z: -0.000523971532506
    angular: 
      x: -0.000133450629992
      y: 0.00144685770946
      z: 0.0236707042397
  covariance: [0.0, 0.0, 0.0, 0.0, 0.0, 0.0, 0.0, 0.0, 0.0, 0.0, 0.0, 0.0, 0.0, 0.0, 0.0, 0.0, 0.0, 0.0, 0.0, 0.0, 0.0, 0.0, 0.0, 0.0, 0.0, 0.0, 0.0, 0.0, 0.0, 0.0, 0.0, 0.0, 0.0, 0.0, 0.0, 0.0]
---
header: 
  seq: 961
  stamp: 
    secs: 4709
    nsecs: 591373619
  frame_id: "map"
child_frame_id: "ego_vehicle"
pose: 
  pose: 
    position: 
      x: 122.658744812
      y: -302.561431885
      z: 0.256220042706
    orientation: 
      x: 6.04964326167e-05
      y: -3.23867374927e-06
      z: 0.999999746966
      w: 0.000708800456815
  covariance: [0.0, 0.0, 0.0, 0.0, 0.0, 0.0, 0.0, 0.0, 0.0, 0.0, 0.0, 0.0, 0.0, 0.0, 0.0, 0.0, 0.0, 0.0, 0.0, 0.0, 0.0, 0.0, 0.0, 0.0, 0.0, 0.0, 0.0, 0.0, 0.0, 0.0, 0.0, 0.0, 0.0, 0.0, 0.0, 0.0]
twist: 
  twist: 
    linear: 
      x: 5.49806937839
      y: 0.000440133820781
      z: -0.000663946009811
    angular: 
      x: -2.91087883709e-05
      y: -0.001446495686
      z: -0.0246636430461
  covariance: [0.0, 0.0, 0.0, 0.0, 0.0, 0.0, 0.0, 0.0, 0.0, 0.0, 0.0, 0.0, 0.0, 0.0, 0.0, 0.0, 0.0, 0.0, 0.0, 0.0, 0.0, 0.0, 0.0, 0.0, 0.0, 0.0, 0.0, 0.0, 0.0, 0.0, 0.0, 0.0, 0.0, 0.0, 0.0, 0.0]
---
header: 
  seq: 962
  stamp: 
    secs: 4709
    nsecs: 641373620
  frame_id: "map"
child_frame_id: "ego_vehicle"
pose: 
  pose: 
    position: 
      x: 122.385536194
      y: -302.560882568
      z: 0.256230473518
    orientation: 
      x: 4.81587260114e-05
      y: -3.48740681252e-06
      z: 0.99999986086
      w: 0.000525308666983
  covariance: [0.0, 0.0, 0.0, 0.0, 0.0, 0.0, 0.0, 0.0, 0.0, 0.0, 0.0, 0.0, 0.0, 0.0, 0.0, 0.0, 0.0, 0.0, 0.0, 0.0, 0.0, 0.0, 0.0, 0.0, 0.0, 0.0, 0.0, 0.0, 0.0, 0.0, 0.0, 0.0, 0.0, 0.0, 0.0, 0.0]
twist: 
  twist: 
    linear: 
      x: 5.44749527078
      y: -0.00197419184509
      z: -0.000522957707672
    angular: 
      x: -2.19645314188e-06
      y: 0.00145900760171
      z: 0.0233023994639
  covariance: [0.0, 0.0, 0.0, 0.0, 0.0, 0.0, 0.0, 0.0, 0.0, 0.0, 0.0, 0.0, 0.0, 0.0, 0.0, 0.0, 0.0, 0.0, 0.0, 0.0, 0.0, 0.0, 0.0, 0.0, 0.0, 0.0, 0.0, 0.0, 0.0, 0.0, 0.0, 0.0, 0.0, 0.0, 0.0, 0.0]
---
header: 
  seq: 963
  stamp: 
    secs: 4709
    nsecs: 691373621
  frame_id: "map"
child_frame_id: "ego_vehicle"
pose: 
  pose: 
    position: 
      x: 122.110748291
      y: -302.560668945
      z: 0.256220847368
    orientation: 
      x: 5.9661857504e-05
      y: -3.24004481431e-06
      z: 0.999999723163
      w: 0.000741690484937
  covariance: [0.0, 0.0, 0.0, 0.0, 0.0, 0.0, 0.0, 0.0, 0.0, 0.0, 0.0, 0.0, 0.0, 0.0, 0.0, 0.0, 0.0, 0.0, 0.0, 0.0, 0.0, 0.0, 0.0, 0.0, 0.0, 0.0, 0.0, 0.0, 0.0, 0.0, 0.0, 0.0, 0.0, 0.0, 0.0, 0.0]
twist: 
  twist: 
    linear: 
      x: 5.51927408517
      y: 0.000310613678483
      z: -0.000657449546033
    angular: 
      x: 1.19573935655e-05
      y: -0.00141801299609
      z: -0.024611725969
  covariance: [0.0, 0.0, 0.0, 0.0, 0.0, 0.0, 0.0, 0.0, 0.0, 0.0, 0.0, 0.0, 0.0, 0.0, 0.0, 0.0, 0.0, 0.0, 0.0, 0.0, 0.0, 0.0, 0.0, 0.0, 0.0, 0.0, 0.0, 0.0, 0.0, 0.0, 0.0, 0.0, 0.0, 0.0, 0.0, 0.0]
---
header: 
  seq: 964
  stamp: 
    secs: 4709
    nsecs: 741373622
  frame_id: "map"
child_frame_id: "ego_vehicle"
pose: 
  pose: 
    position: 
      x: 121.836494446
      y: -302.560150146
      z: 0.256231427193
    orientation: 
      x: 4.70276195428e-05
      y: -8.2456659721e-07
      z: 0.999999850518
      w: 0.000544749611003
  covariance: [0.0, 0.0, 0.0, 0.0, 0.0, 0.0, 0.0, 0.0, 0.0, 0.0, 0.0, 0.0, 0.0, 0.0, 0.0, 0.0, 0.0, 0.0, 0.0, 0.0, 0.0, 0.0, 0.0, 0.0, 0.0, 0.0, 0.0, 0.0, 0.0, 0.0, 0.0, 0.0, 0.0, 0.0, 0.0, 0.0]
twist: 
  twist: 
    linear: 
      x: 5.46845570295
      y: -0.00090110713387
      z: -0.000515512748112
    angular: 
      x: 8.05816483586e-05
      y: 0.00146663688204
      z: 0.0239785427751
  covariance: [0.0, 0.0, 0.0, 0.0, 0.0, 0.0, 0.0, 0.0, 0.0, 0.0, 0.0, 0.0, 0.0, 0.0, 0.0, 0.0, 0.0, 0.0, 0.0, 0.0, 0.0, 0.0, 0.0, 0.0, 0.0, 0.0, 0.0, 0.0, 0.0, 0.0, 0.0, 0.0, 0.0, 0.0, 0.0, 0.0]
---
header: 
  seq: 965
  stamp: 
    secs: 4709
    nsecs: 791373622
  frame_id: "map"
child_frame_id: "ego_vehicle"
pose: 
  pose: 
    position: 
      x: 121.560699463
      y: -302.559967041
      z: 0.25622215867
    orientation: 
      x: 5.80551486042e-05
      y: 2.87152448269e-07
      z: 0.999999725234
      w: 0.000739027114819
  covariance: [0.0, 0.0, 0.0, 0.0, 0.0, 0.0, 0.0, 0.0, 0.0, 0.0, 0.0, 0.0, 0.0, 0.0, 0.0, 0.0, 0.0, 0.0, 0.0, 0.0, 0.0, 0.0, 0.0, 0.0, 0.0, 0.0, 0.0, 0.0, 0.0, 0.0, 0.0, 0.0, 0.0, 0.0, 0.0, 0.0]
twist: 
  twist: 
    linear: 
      x: 5.53916857754
      y: 0.0016615737902
      z: -0.000641210705397
    angular: 
      x: 2.41291879347e-05
      y: -0.0013943938261
      z: -0.0236631600036
  covariance: [0.0, 0.0, 0.0, 0.0, 0.0, 0.0, 0.0, 0.0, 0.0, 0.0, 0.0, 0.0, 0.0, 0.0, 0.0, 0.0, 0.0, 0.0, 0.0, 0.0, 0.0, 0.0, 0.0, 0.0, 0.0, 0.0, 0.0, 0.0, 0.0, 0.0, 0.0, 0.0, 0.0, 0.0, 0.0, 0.0]
---
header: 
  seq: 966
  stamp: 
    secs: 4709
    nsecs: 841373623
  frame_id: "map"
child_frame_id: "ego_vehicle"
pose: 
  pose: 
    position: 
      x: 121.285469055
      y: -302.55947876
      z: 0.256233006716
    orientation: 
      x: 4.51210093569e-05
      y: 5.43401254699e-07
      z: 0.99999985685
      w: 0.000533164798827
  covariance: [0.0, 0.0, 0.0, 0.0, 0.0, 0.0, 0.0, 0.0, 0.0, 0.0, 0.0, 0.0, 0.0, 0.0, 0.0, 0.0, 0.0, 0.0, 0.0, 0.0, 0.0, 0.0, 0.0, 0.0, 0.0, 0.0, 0.0, 0.0, 0.0, 0.0, 0.0, 0.0, 0.0, 0.0, 0.0, 0.0]
twist: 
  twist: 
    linear: 
      x: 5.48797114361
      y: -0.000520263532457
      z: -0.000495687863199
    angular: 
      x: 1.04593705954e-07
      y: 0.00147051537045
      z: 0.0241560944766
  covariance: [0.0, 0.0, 0.0, 0.0, 0.0, 0.0, 0.0, 0.0, 0.0, 0.0, 0.0, 0.0, 0.0, 0.0, 0.0, 0.0, 0.0, 0.0, 0.0, 0.0, 0.0, 0.0, 0.0, 0.0, 0.0, 0.0, 0.0, 0.0, 0.0, 0.0, 0.0, 0.0, 0.0, 0.0, 0.0, 0.0]
---
header: 
  seq: 967
  stamp: 
    secs: 4709
    nsecs: 891373624
  frame_id: "map"
child_frame_id: "ego_vehicle"
pose: 
  pose: 
    position: 
      x: 121.008728027
      y: -302.559356689
      z: 0.256223887205
    orientation: 
      x: 5.58499747407e-05
      y: 5.70388073332e-07
      z: 0.999999736366
      w: 0.000723980243849
  covariance: [0.0, 0.0, 0.0, 0.0, 0.0, 0.0, 0.0, 0.0, 0.0, 0.0, 0.0, 0.0, 0.0, 0.0, 0.0, 0.0, 0.0, 0.0, 0.0, 0.0, 0.0, 0.0, 0.0, 0.0, 0.0, 0.0, 0.0, 0.0, 0.0, 0.0, 0.0, 0.0, 0.0, 0.0, 0.0, 0.0]
twist: 
  twist: 
    linear: 
      x: 5.55754305496
      y: 0.00184819523668
      z: -0.000621466280808
    angular: 
      x: 3.86637082764e-06
      y: -0.00137500476501
      z: -0.0235392876428
  covariance: [0.0, 0.0, 0.0, 0.0, 0.0, 0.0, 0.0, 0.0, 0.0, 0.0, 0.0, 0.0, 0.0, 0.0, 0.0, 0.0, 0.0, 0.0, 0.0, 0.0, 0.0, 0.0, 0.0, 0.0, 0.0, 0.0, 0.0, 0.0, 0.0, 0.0, 0.0, 0.0, 0.0, 0.0, 0.0, 0.0]
---
header: 
  seq: 968
  stamp: 
    secs: 4709
    nsecs: 941373625
  frame_id: "map"
child_frame_id: "ego_vehicle"
pose: 
  pose: 
    position: 
      x: 120.732574463
      y: -302.558868408
      z: 0.256235033274
    orientation: 
      x: 4.27369720983e-05
      y: 8.54728211082e-07
      z: 0.999999866651
      w: 0.00051465582
  covariance: [0.0, 0.0, 0.0, 0.0, 0.0, 0.0, 0.0, 0.0, 0.0, 0.0, 0.0, 0.0, 0.0, 0.0, 0.0, 0.0, 0.0, 0.0, 0.0, 0.0, 0.0, 0.0, 0.0, 0.0, 0.0, 0.0, 0.0, 0.0, 0.0, 0.0, 0.0, 0.0, 0.0, 0.0, 0.0, 0.0]
twist: 
  twist: 
    linear: 
      x: 5.50586492998
      y: -0.000266534956195
      z: -0.000472024421402
    angular: 
      x: 2.53426327652e-06
      y: 0.00147175059346
      z: 0.024304665576
  covariance: [0.0, 0.0, 0.0, 0.0, 0.0, 0.0, 0.0, 0.0, 0.0, 0.0, 0.0, 0.0, 0.0, 0.0, 0.0, 0.0, 0.0, 0.0, 0.0, 0.0, 0.0, 0.0, 0.0, 0.0, 0.0, 0.0, 0.0, 0.0, 0.0, 0.0, 0.0, 0.0, 0.0, 0.0, 0.0, 0.0]
---
header: 
  seq: 969
  stamp: 
    secs: 4709
    nsecs: 991373625
  frame_id: "map"
child_frame_id: "ego_vehicle"
pose: 
  pose: 
    position: 
      x: 120.454994202
      y: -302.558746338
      z: 0.256226241589
    orientation: 
      x: 5.31684747419e-05
      y: 1.60881868e-06
      z: 0.999999755345
      w: 0.000697481744445
  covariance: [0.0, 0.0, 0.0, 0.0, 0.0, 0.0, 0.0, 0.0, 0.0, 0.0, 0.0, 0.0, 0.0, 0.0, 0.0, 0.0, 0.0, 0.0, 0.0, 0.0, 0.0, 0.0, 0.0, 0.0, 0.0, 0.0, 0.0, 0.0, 0.0, 0.0, 0.0, 0.0, 0.0, 0.0, 0.0, 0.0]
twist: 
  twist: 
    linear: 
      x: 5.57420597184
      y: 0.00242875523395
      z: -0.000594274416841
    angular: 
      x: 2.64623959793e-05
      y: -0.00135764519391
      z: -0.0231697012208
  covariance: [0.0, 0.0, 0.0, 0.0, 0.0, 0.0, 0.0, 0.0, 0.0, 0.0, 0.0, 0.0, 0.0, 0.0, 0.0, 0.0, 0.0, 0.0, 0.0, 0.0, 0.0, 0.0, 0.0, 0.0, 0.0, 0.0, 0.0, 0.0, 0.0, 0.0, 0.0, 0.0, 0.0, 0.0, 0.0, 0.0]
---
header: 
  seq: 970
  stamp: 
    secs: 4710
    nsecs:  41373626
  frame_id: "map"
child_frame_id: "ego_vehicle"
pose: 
  pose: 
    position: 
      x: 120.17804718
      y: -302.558319092
      z: 0.256237477064
    orientation: 
      x: 3.98167018624e-05
      y: 1.6599264417e-06
      z: 0.999999883861
      w: 0.000480301016895
  covariance: [0.0, 0.0, 0.0, 0.0, 0.0, 0.0, 0.0, 0.0, 0.0, 0.0, 0.0, 0.0, 0.0, 0.0, 0.0, 0.0, 0.0, 0.0, 0.0, 0.0, 0.0, 0.0, 0.0, 0.0, 0.0, 0.0, 0.0, 0.0, 0.0, 0.0, 0.0, 0.0, 0.0, 0.0, 0.0, 0.0]
twist: 
  twist: 
    linear: 
      x: 5.52178621539
      y: 0.000149283604745
      z: -0.000440623200531
    angular: 
      x: -8.06300404696e-06
      y: 0.00147569982209
      z: 0.0246186793162
  covariance: [0.0, 0.0, 0.0, 0.0, 0.0, 0.0, 0.0, 0.0, 0.0, 0.0, 0.0, 0.0, 0.0, 0.0, 0.0, 0.0, 0.0, 0.0, 0.0, 0.0, 0.0, 0.0, 0.0, 0.0, 0.0, 0.0, 0.0, 0.0, 0.0, 0.0, 0.0, 0.0, 0.0, 0.0, 0.0, 0.0]
---
header: 
  seq: 971
  stamp: 
    secs: 4710
    nsecs:  91373627
  frame_id: "map"
child_frame_id: "ego_vehicle"
pose: 
  pose: 
    position: 
      x: 119.899711609
      y: -302.558227539
      z: 0.256228774786
    orientation: 
      x: 4.98901803468e-05
      y: 1.63825362185e-06
      z: 0.999999780296
      w: 0.000660996450225
  covariance: [0.0, 0.0, 0.0, 0.0, 0.0, 0.0, 0.0, 0.0, 0.0, 0.0, 0.0, 0.0, 0.0, 0.0, 0.0, 0.0, 0.0, 0.0, 0.0, 0.0, 0.0, 0.0, 0.0, 0.0, 0.0, 0.0, 0.0, 0.0, 0.0, 0.0, 0.0, 0.0, 0.0, 0.0, 0.0, 0.0]
twist: 
  twist: 
    linear: 
      x: 5.5887666447
      y: 0.0025380988913
      z: -0.0005589497681
    angular: 
      x: 5.0751193356e-06
      y: -0.00133964388942
      z: -0.0231696304806
  covariance: [0.0, 0.0, 0.0, 0.0, 0.0, 0.0, 0.0, 0.0, 0.0, 0.0, 0.0, 0.0, 0.0, 0.0, 0.0, 0.0, 0.0, 0.0, 0.0, 0.0, 0.0, 0.0, 0.0, 0.0, 0.0, 0.0, 0.0, 0.0, 0.0, 0.0, 0.0, 0.0, 0.0, 0.0, 0.0, 0.0]
---
header: 
  seq: 972
  stamp: 
    secs: 4710
    nsecs: 141373628
  frame_id: "map"
child_frame_id: "ego_vehicle"
pose: 
  pose: 
    position: 
      x: 119.622070312
      y: -302.557800293
      z: 0.256240427494
    orientation: 
      x: 3.64190673047e-05
      y: 1.41892301147e-06
      z: 0.999999901263
      w: 0.000442883622245
  covariance: [0.0, 0.0, 0.0, 0.0, 0.0, 0.0, 0.0, 0.0, 0.0, 0.0, 0.0, 0.0, 0.0, 0.0, 0.0, 0.0, 0.0, 0.0, 0.0, 0.0, 0.0, 0.0, 0.0, 0.0, 0.0, 0.0, 0.0, 0.0, 0.0, 0.0, 0.0, 0.0, 0.0, 0.0, 0.0, 0.0]
twist: 
  twist: 
    linear: 
      x: 5.53556595471
      y: 0.000166997117526
      z: -0.000403435591869
    angular: 
      x: -1.68853682323e-05
      y: 0.00147739836751
      z: 0.0246876635108
  covariance: [0.0, 0.0, 0.0, 0.0, 0.0, 0.0, 0.0, 0.0, 0.0, 0.0, 0.0, 0.0, 0.0, 0.0, 0.0, 0.0, 0.0, 0.0, 0.0, 0.0, 0.0, 0.0, 0.0, 0.0, 0.0, 0.0, 0.0, 0.0, 0.0, 0.0, 0.0, 0.0, 0.0, 0.0, 0.0, 0.0]
---
header: 
  seq: 973
  stamp: 
    secs: 4710
    nsecs: 191373628
  frame_id: "map"
child_frame_id: "ego_vehicle"
pose: 
  pose: 
    position: 
      x: 119.343093872
      y: -302.557678223
      z: 0.256231993437
    orientation: 
      x: 4.62530243999e-05
      y: -2.95682084834e-07
      z: 0.999999797383
      w: 0.00063489757286
  covariance: [0.0, 0.0, 0.0, 0.0, 0.0, 0.0, 0.0, 0.0, 0.0, 0.0, 0.0, 0.0, 0.0, 0.0, 0.0, 0.0, 0.0, 0.0, 0.0, 0.0, 0.0, 0.0, 0.0, 0.0, 0.0, 0.0, 0.0, 0.0, 0.0, 0.0, 0.0, 0.0, 0.0, 0.0, 0.0, 0.0]
twist: 
  twist: 
    linear: 
      x: 5.60124049903
      y: 0.00176665676622
      z: -0.000519348999084
    angular: 
      x: -4.8332293869e-05
      y: -0.00132777864852
      z: -0.0237702294824
  covariance: [0.0, 0.0, 0.0, 0.0, 0.0, 0.0, 0.0, 0.0, 0.0, 0.0, 0.0, 0.0, 0.0, 0.0, 0.0, 0.0, 0.0, 0.0, 0.0, 0.0, 0.0, 0.0, 0.0, 0.0, 0.0, 0.0, 0.0, 0.0, 0.0, 0.0, 0.0, 0.0, 0.0, 0.0, 0.0, 0.0]
---
header: 
  seq: 974
  stamp: 
    secs: 4710
    nsecs: 241373629
  frame_id: "map"
child_frame_id: "ego_vehicle"
pose: 
  pose: 
    position: 
      x: 119.064842224
      y: -302.557220459
      z: 0.256243467331
    orientation: 
      x: 3.27224847324e-05
      y: -1.07939482017e-06
      z: 0.999999906225
      w: 0.000431831591962
  covariance: [0.0, 0.0, 0.0, 0.0, 0.0, 0.0, 0.0, 0.0, 0.0, 0.0, 0.0, 0.0, 0.0, 0.0, 0.0, 0.0, 0.0, 0.0, 0.0, 0.0, 0.0, 0.0, 0.0, 0.0, 0.0, 0.0, 0.0, 0.0, 0.0, 0.0, 0.0, 0.0, 0.0, 0.0, 0.0, 0.0]
twist: 
  twist: 
    linear: 
      x: 5.54725302315
      y: -0.000804949557461
      z: -0.000361526285431
    angular: 
      x: -2.55607304848e-05
      y: 0.00147459294576
      z: 0.0241157683921
  covariance: [0.0, 0.0, 0.0, 0.0, 0.0, 0.0, 0.0, 0.0, 0.0, 0.0, 0.0, 0.0, 0.0, 0.0, 0.0, 0.0, 0.0, 0.0, 0.0, 0.0, 0.0, 0.0, 0.0, 0.0, 0.0, 0.0, 0.0, 0.0, 0.0, 0.0, 0.0, 0.0, 0.0, 0.0, 0.0, 0.0]
---
header: 
  seq: 975
  stamp: 
    secs: 4710
    nsecs: 291373630
  frame_id: "map"
child_frame_id: "ego_vehicle"
pose: 
  pose: 
    position: 
      x: 118.785316467
      y: -302.557098389
      z: 0.256235092878
    orientation: 
      x: 4.24975971561e-05
      y: -8.25647165218e-07
      z: 0.999999801754
      w: 0.00062823969321
  covariance: [0.0, 0.0, 0.0, 0.0, 0.0, 0.0, 0.0, 0.0, 0.0, 0.0, 0.0, 0.0, 0.0, 0.0, 0.0, 0.0, 0.0, 0.0, 0.0, 0.0, 0.0, 0.0, 0.0, 0.0, 0.0, 0.0, 0.0, 0.0, 0.0, 0.0, 0.0, 0.0, 0.0, 0.0, 0.0, 0.0]
twist: 
  twist: 
    linear: 
      x: 5.61168475514
      y: 0.00164694229913
      z: -0.000476391020035
    angular: 
      x: 2.01320731213e-05
      y: -0.00132159460121
      z: -0.0238962552586
  covariance: [0.0, 0.0, 0.0, 0.0, 0.0, 0.0, 0.0, 0.0, 0.0, 0.0, 0.0, 0.0, 0.0, 0.0, 0.0, 0.0, 0.0, 0.0, 0.0, 0.0, 0.0, 0.0, 0.0, 0.0, 0.0, 0.0, 0.0, 0.0, 0.0, 0.0, 0.0, 0.0, 0.0, 0.0, 0.0, 0.0]
---
header: 
  seq: 976
  stamp: 
    secs: 4710
    nsecs: 341373631
  frame_id: "map"
child_frame_id: "ego_vehicle"
pose: 
  pose: 
    position: 
      x: 118.506568909
      y: -302.556640625
      z: 0.256246685982
    orientation: 
      x: 2.89675155144e-05
      y: -8.11218336823e-07
      z: 0.999999909872
      w: 0.000423575781677
  covariance: [0.0, 0.0, 0.0, 0.0, 0.0, 0.0, 0.0, 0.0, 0.0, 0.0, 0.0, 0.0, 0.0, 0.0, 0.0, 0.0, 0.0, 0.0, 0.0, 0.0, 0.0, 0.0, 0.0, 0.0, 0.0, 0.0, 0.0, 0.0, 0.0, 0.0, 0.0, 0.0, 0.0, 0.0, 0.0, 0.0]
twist: 
  twist: 
    linear: 
      x: 5.55688977956
      y: -0.000761481435702
      z: -0.000322047902197
    angular: 
      x: -8.58930000104e-06
      y: 0.00147021433442
      z: 0.0242581455613
  covariance: [0.0, 0.0, 0.0, 0.0, 0.0, 0.0, 0.0, 0.0, 0.0, 0.0, 0.0, 0.0, 0.0, 0.0, 0.0, 0.0, 0.0, 0.0, 0.0, 0.0, 0.0, 0.0, 0.0, 0.0, 0.0, 0.0, 0.0, 0.0, 0.0, 0.0, 0.0, 0.0, 0.0, 0.0, 0.0, 0.0]
---
header: 
  seq: 977
  stamp: 
    secs: 4710
    nsecs: 391373631
  frame_id: "map"
child_frame_id: "ego_vehicle"
pose: 
  pose: 
    position: 
      x: 118.226600647
      y: -302.556518555
      z: 0.256238520145
    orientation: 
      x: 3.87426781651e-05
      y: -5.56677922815e-07
      z: 0.999999806646
      w: 0.000620649672367
  covariance: [0.0, 0.0, 0.0, 0.0, 0.0, 0.0, 0.0, 0.0, 0.0, 0.0, 0.0, 0.0, 0.0, 0.0, 0.0, 0.0, 0.0, 0.0, 0.0, 0.0, 0.0, 0.0, 0.0, 0.0, 0.0, 0.0, 0.0, 0.0, 0.0, 0.0, 0.0, 0.0, 0.0, 0.0, 0.0, 0.0]
twist: 
  twist: 
    linear: 
      x: 5.6201914327
      y: 0.00166793695789
      z: -0.00043284880405
    angular: 
      x: 1.79977447259e-05
      y: -0.00131928332068
      z: -0.0239636540402
  covariance: [0.0, 0.0, 0.0, 0.0, 0.0, 0.0, 0.0, 0.0, 0.0, 0.0, 0.0, 0.0, 0.0, 0.0, 0.0, 0.0, 0.0, 0.0, 0.0, 0.0, 0.0, 0.0, 0.0, 0.0, 0.0, 0.0, 0.0, 0.0, 0.0, 0.0, 0.0, 0.0, 0.0, 0.0, 0.0, 0.0]
---
header: 
  seq: 978
  stamp: 
    secs: 4710
    nsecs: 441373632
  frame_id: "map"
child_frame_id: "ego_vehicle"
pose: 
  pose: 
    position: 
      x: 117.94744873
      y: -302.556060791
      z: 0.256249636412
    orientation: 
      x: 2.533174951e-05
      y: -5.43146267824e-07
      z: 0.999999913544
      w: 0.000415053657332
  covariance: [0.0, 0.0, 0.0, 0.0, 0.0, 0.0, 0.0, 0.0, 0.0, 0.0, 0.0, 0.0, 0.0, 0.0, 0.0, 0.0, 0.0, 0.0, 0.0, 0.0, 0.0, 0.0, 0.0, 0.0, 0.0, 0.0, 0.0, 0.0, 0.0, 0.0, 0.0, 0.0, 0.0, 0.0, 0.0, 0.0]
twist: 
  twist: 
    linear: 
      x: 5.56474415733
      y: -0.000765784051398
      z: -0.000281201357527
    angular: 
      x: -1.31947520271e-05
      y: 0.00146068781189
      z: 0.0243287983927
  covariance: [0.0, 0.0, 0.0, 0.0, 0.0, 0.0, 0.0, 0.0, 0.0, 0.0, 0.0, 0.0, 0.0, 0.0, 0.0, 0.0, 0.0, 0.0, 0.0, 0.0, 0.0, 0.0, 0.0, 0.0, 0.0, 0.0, 0.0, 0.0, 0.0, 0.0, 0.0, 0.0, 0.0, 0.0, 0.0, 0.0]
---
header: 
  seq: 979
  stamp: 
    secs: 4710
    nsecs: 491373633
  frame_id: "map"
child_frame_id: "ego_vehicle"
pose: 
  pose: 
    position: 
      x: 117.667137146
      y: -302.555938721
      z: 0.256241321564
    orientation: 
      x: 3.51665686175e-05
      y: -2.87842540229e-07
      z: 0.999999812032
      w: 0.000612127547314
  covariance: [0.0, 0.0, 0.0, 0.0, 0.0, 0.0, 0.0, 0.0, 0.0, 0.0, 0.0, 0.0, 0.0, 0.0, 0.0, 0.0, 0.0, 0.0, 0.0, 0.0, 0.0, 0.0, 0.0, 0.0, 0.0, 0.0, 0.0, 0.0, 0.0, 0.0, 0.0, 0.0, 0.0, 0.0, 0.0, 0.0]
twist: 
  twist: 
    linear: 
      x: 5.62701719383
      y: 0.00173407723072
      z: -0.000396012703113
    angular: 
      x: 2.1808711341e-05
      y: -0.00131893078994
      z: -0.0240160558958
  covariance: [0.0, 0.0, 0.0, 0.0, 0.0, 0.0, 0.0, 0.0, 0.0, 0.0, 0.0, 0.0, 0.0, 0.0, 0.0, 0.0, 0.0, 0.0, 0.0, 0.0, 0.0, 0.0, 0.0, 0.0, 0.0, 0.0, 0.0, 0.0, 0.0, 0.0, 0.0, 0.0, 0.0, 0.0, 0.0, 0.0]
---
header: 
  seq: 980
  stamp: 
    secs: 4710
    nsecs: 541373634
  frame_id: "map"
child_frame_id: "ego_vehicle"
pose: 
  pose: 
    position: 
      x: 117.387672424
      y: -302.555541992
      z: 0.25625282526
    orientation: 
      x: 2.18747947582e-05
      y: -2.75168130097e-07
      z: 0.999999917883
      w: 0.000404667322322
  covariance: [0.0, 0.0, 0.0, 0.0, 0.0, 0.0, 0.0, 0.0, 0.0, 0.0, 0.0, 0.0, 0.0, 0.0, 0.0, 0.0, 0.0, 0.0, 0.0, 0.0, 0.0, 0.0, 0.0, 0.0, 0.0, 0.0, 0.0, 0.0, 0.0, 0.0, 0.0, 0.0, 0.0, 0.0, 0.0, 0.0]
twist: 
  twist: 
    linear: 
      x: 5.57066775002
      y: -0.000706060565353
      z: -0.00024459000007
    angular: 
      x: -1.3930827386e-05
      y: 0.0014590831533
      z: 0.0244951523341
  covariance: [0.0, 0.0, 0.0, 0.0, 0.0, 0.0, 0.0, 0.0, 0.0, 0.0, 0.0, 0.0, 0.0, 0.0, 0.0, 0.0, 0.0, 0.0, 0.0, 0.0, 0.0, 0.0, 0.0, 0.0, 0.0, 0.0, 0.0, 0.0, 0.0, 0.0, 0.0, 0.0, 0.0, 0.0, 0.0, 0.0]
---
header: 
  seq: 981
  stamp: 
    secs: 4710
    nsecs: 591373634
  frame_id: "map"
child_frame_id: "ego_vehicle"
pose: 
  pose: 
    position: 
      x: 117.107086182
      y: -302.555480957
      z: 0.256244570017
    orientation: 
      x: 3.1590789509e-05
      y: 5.41775008495e-07
      z: 0.999999821089
      w: 0.000597346978971
  covariance: [0.0, 0.0, 0.0, 0.0, 0.0, 0.0, 0.0, 0.0, 0.0, 0.0, 0.0, 0.0, 0.0, 0.0, 0.0, 0.0, 0.0, 0.0, 0.0, 0.0, 0.0, 0.0, 0.0, 0.0, 0.0, 0.0, 0.0, 0.0, 0.0, 0.0, 0.0, 0.0, 0.0, 0.0, 0.0, 0.0]
twist: 
  twist: 
    linear: 
      x: 5.63177067606
      y: 0.00210275529434
      z: -0.000354967383299
    angular: 
      x: 4.36662353819e-05
      y: -0.00131269628821
      z: -0.02390612768
  covariance: [0.0, 0.0, 0.0, 0.0, 0.0, 0.0, 0.0, 0.0, 0.0, 0.0, 0.0, 0.0, 0.0, 0.0, 0.0, 0.0, 0.0, 0.0, 0.0, 0.0, 0.0, 0.0, 0.0, 0.0, 0.0, 0.0, 0.0, 0.0, 0.0, 0.0, 0.0, 0.0, 0.0, 0.0, 0.0, 0.0]
---
header: 
  seq: 982
  stamp: 
    secs: 4710
    nsecs: 641373635
  frame_id: "map"
child_frame_id: "ego_vehicle"
pose: 
  pose: 
    position: 
      x: 116.827415466
      y: -302.555053711
      z: 0.256255805492
    orientation: 
      x: 1.81796631211e-05
      y: 6.46841531575e-07
      z: 0.999999926912
      w: 0.000381897279086
  covariance: [0.0, 0.0, 0.0, 0.0, 0.0, 0.0, 0.0, 0.0, 0.0, 0.0, 0.0, 0.0, 0.0, 0.0, 0.0, 0.0, 0.0, 0.0, 0.0, 0.0, 0.0, 0.0, 0.0, 0.0, 0.0, 0.0, 0.0, 0.0, 0.0, 0.0, 0.0, 0.0, 0.0, 0.0, 0.0, 0.0]
twist: 
  twist: 
    linear: 
      x: 5.57446568991
      y: -0.000292300457721
      z: -0.000202133891251
    angular: 
      x: -1.35304988377e-05
      y: 0.00145988990386
      z: 0.0249195915523
  covariance: [0.0, 0.0, 0.0, 0.0, 0.0, 0.0, 0.0, 0.0, 0.0, 0.0, 0.0, 0.0, 0.0, 0.0, 0.0, 0.0, 0.0, 0.0, 0.0, 0.0, 0.0, 0.0, 0.0, 0.0, 0.0, 0.0, 0.0, 0.0, 0.0, 0.0, 0.0, 0.0, 0.0, 0.0, 0.0, 0.0]
---
header: 
  seq: 983
  stamp: 
    secs: 4710
    nsecs: 691373636
  frame_id: "map"
child_frame_id: "ego_vehicle"
pose: 
  pose: 
    position: 
      x: 116.546676636
      y: -302.554962158
      z: 0.256247401237
    orientation: 
      x: 2.80725206381e-05
      y: -2.14713716441e-06
      z: 0.999999824596
      w: 0.000591621261226
  covariance: [0.0, 0.0, 0.0, 0.0, 0.0, 0.0, 0.0, 0.0, 0.0, 0.0, 0.0, 0.0, 0.0, 0.0, 0.0, 0.0, 0.0, 0.0, 0.0, 0.0, 0.0, 0.0, 0.0, 0.0, 0.0, 0.0, 0.0, 0.0, 0.0, 0.0, 0.0, 0.0, 0.0, 0.0, 0.0, 0.0]
twist: 
  twist: 
    linear: 
      x: 5.63503277049
      y: 0.000809670677442
      z: -0.000317684131319
    angular: 
      x: -8.06178880904e-05
      y: -0.00132831648222
      z: -0.0248075765001
  covariance: [0.0, 0.0, 0.0, 0.0, 0.0, 0.0, 0.0, 0.0, 0.0, 0.0, 0.0, 0.0, 0.0, 0.0, 0.0, 0.0, 0.0, 0.0, 0.0, 0.0, 0.0, 0.0, 0.0, 0.0, 0.0, 0.0, 0.0, 0.0, 0.0, 0.0, 0.0, 0.0, 0.0, 0.0, 0.0, 0.0]
---
header: 
  seq: 984
  stamp: 
    secs: 4710
    nsecs: 741373637
  frame_id: "map"
child_frame_id: "ego_vehicle"
pose: 
  pose: 
    position: 
      x: 116.266807556
      y: -302.554473877
      z: 0.256257712841
    orientation: 
      x: 1.60918506312e-05
      y: -3.46862053075e-06
      z: 0.999999917987
      w: 0.000404667372255
  covariance: [0.0, 0.0, 0.0, 0.0, 0.0, 0.0, 0.0, 0.0, 0.0, 0.0, 0.0, 0.0, 0.0, 0.0, 0.0, 0.0, 0.0, 0.0, 0.0, 0.0, 0.0, 0.0, 0.0, 0.0, 0.0, 0.0, 0.0, 0.0, 0.0, 0.0, 0.0, 0.0, 0.0, 0.0, 0.0, 0.0]
twist: 
  twist: 
    linear: 
      x: 5.57932812651
      y: -0.00195203646689
      z: -0.000180697473905
    angular: 
      x: -3.93864279044e-05
      y: 0.00138071404663
      z: 0.0234511245272
  covariance: [0.0, 0.0, 0.0, 0.0, 0.0, 0.0, 0.0, 0.0, 0.0, 0.0, 0.0, 0.0, 0.0, 0.0, 0.0, 0.0, 0.0, 0.0, 0.0, 0.0, 0.0, 0.0, 0.0, 0.0, 0.0, 0.0, 0.0, 0.0, 0.0, 0.0, 0.0, 0.0, 0.0, 0.0, 0.0, 0.0]
---
header: 
  seq: 985
  stamp: 
    secs: 4710
    nsecs: 791373637
  frame_id: "map"
child_frame_id: "ego_vehicle"
pose: 
  pose: 
    position: 
      x: 115.985717773
      y: -302.554382324
      z: 0.256247103214
    orientation: 
      x: 2.8549644356e-05
      y: -1.61530822288e-06
      z: 0.999999813624
      w: 0.000609863897195
  covariance: [0.0, 0.0, 0.0, 0.0, 0.0, 0.0, 0.0, 0.0, 0.0, 0.0, 0.0, 0.0, 0.0, 0.0, 0.0, 0.0, 0.0, 0.0, 0.0, 0.0, 0.0, 0.0, 0.0, 0.0, 0.0, 0.0, 0.0, 0.0, 0.0, 0.0, 0.0, 0.0, 0.0, 0.0, 0.0, 0.0]
twist: 
  twist: 
    linear: 
      x: 5.64257322384
      y: 0.00119696968188
      z: -0.000320787517102
    angular: 
      x: 7.82499438687e-05
      y: -0.00143753755591
      z: -0.0239451908437
  covariance: [0.0, 0.0, 0.0, 0.0, 0.0, 0.0, 0.0, 0.0, 0.0, 0.0, 0.0, 0.0, 0.0, 0.0, 0.0, 0.0, 0.0, 0.0, 0.0, 0.0, 0.0, 0.0, 0.0, 0.0, 0.0, 0.0, 0.0, 0.0, 0.0, 0.0, 0.0, 0.0, 0.0, 0.0, 0.0, 0.0]
---
header: 
  seq: 986
  stamp: 
    secs: 4710
    nsecs: 841373638
  frame_id: "map"
child_frame_id: "ego_vehicle"
pose: 
  pose: 
    position: 
      x: 115.705375671
      y: -302.553924561
      z: 0.25625500083
    orientation: 
      x: 1.90134401768e-05
      y: -1.07311302093e-06
      z: 0.999999914621
      w: 0.000412789977419
  covariance: [0.0, 0.0, 0.0, 0.0, 0.0, 0.0, 0.0, 0.0, 0.0, 0.0, 0.0, 0.0, 0.0, 0.0, 0.0, 0.0, 0.0, 0.0, 0.0, 0.0, 0.0, 0.0, 0.0, 0.0, 0.0, 0.0, 0.0, 0.0, 0.0, 0.0, 0.0, 0.0, 0.0, 0.0, 0.0, 0.0]
twist: 
  twist: 
    linear: 
      x: 5.58915748874
      y: -0.00105102781956
      z: -0.000211806309527
    angular: 
      x: 1.8354184208e-06
      y: 0.00129377067957
      z: 0.0236339276495
  covariance: [0.0, 0.0, 0.0, 0.0, 0.0, 0.0, 0.0, 0.0, 0.0, 0.0, 0.0, 0.0, 0.0, 0.0, 0.0, 0.0, 0.0, 0.0, 0.0, 0.0, 0.0, 0.0, 0.0, 0.0, 0.0, 0.0, 0.0, 0.0, 0.0, 0.0, 0.0, 0.0, 0.0, 0.0, 0.0, 0.0]
---
header: 
  seq: 987
  stamp: 
    secs: 4710
    nsecs: 891373639
  frame_id: "map"
child_frame_id: "ego_vehicle"
pose: 
  pose: 
    position: 
      x: 115.42376709
