header: 
  seq: 47348
  stamp: 
    secs: 2439
    nsecs: 597966224
  frame_id: "map"
pose: 
  position: 
    x: 45.1728553772
    y: -298.627746582
    z: 0.255851894617
  orientation: 
    x: 4.36929697727e-05
    y: 0.000110706993698
    z: 0.542812620677
    w: 0.839853823393
---
header: 
  seq: 47349
  stamp: 
    secs: 2439
    nsecs: 647966224
  frame_id: "map"
pose: 
  position: 
    x: 45.1986465454
    y: -298.54196167
    z: 0.255838185549
  orientation: 
    x: 5.92946961392e-05
    y: 0.000102276673732
    z: 0.546193899033
    w: 0.837658767448
---
header: 
  seq: 47350
  stamp: 
    secs: 2439
    nsecs: 697966225
  frame_id: "map"
pose: 
  position: 
    x: 45.2240943909
    y: -298.45602417
    z: 0.255825608969
  orientation: 
    x: 6.17700904161e-05
    y: 8.62250126401e-05
    z: 0.549587995326
    w: 0.83543582886
---
header: 
  seq: 47351
  stamp: 
    secs: 2439
    nsecs: 747966226
  frame_id: "map"
pose: 
  position: 
    x: 45.2488594055
    y: -298.369659424
    z: 0.255813360214
  orientation: 
    x: 7.33602084425e-05
    y: 7.74301956674e-05
    z: 0.552872743151
    w: 0.833265695024
---
header: 
  seq: 47352
  stamp: 
    secs: 2439
    nsecs: 797966227
  frame_id: "map"
pose: 
  position: 
    x: 45.2735443115
    y: -298.282928467
    z: 0.255801856518
  orientation: 
    x: 6.92499197954e-05
    y: 5.85305999838e-05
    z: 0.556127785872
    w: 0.831096791932
---
header: 
  seq: 47353
  stamp: 
    secs: 2439
    nsecs: 847966227
  frame_id: "map"
pose: 
  position: 
    x: 45.297668457
    y: -298.195526123
    z: 0.255791395903
  orientation: 
    x: 7.96822244618e-05
    y: 5.10980737318e-05
    z: 0.559279280649
    w: 0.828979298461
---
header: 
  seq: 47354
  stamp: 
    secs: 2439
    nsecs: 897966228
  frame_id: "map"
pose: 
  position: 
    x: 45.3213615417
    y: -298.10748291
    z: 0.255782783031
  orientation: 
    x: 9.2162778425e-05
    y: 4.77834566008e-05
    z: 0.562530717656
    w: 0.826776379026
---
header: 
  seq: 47355
  stamp: 
    secs: 2439
    nsecs: 947966229
  frame_id: "map"
pose: 
  position: 
    x: 45.3444366455
    y: -298.018615723
    z: 0.255774885416
  orientation: 
    x: 0.00010605650039
    y: 4.63754776783e-05
    z: 0.565709189875
    w: 0.824604813891
---
header: 
  seq: 47356
  stamp: 
    secs: 2439
    nsecs: 997966230
  frame_id: "map"
pose: 
  position: 
    x: 45.3670806885
    y: -297.928924561
    z: 0.255768239498
  orientation: 
    x: 0.000116759062076
    y: 4.48358204267e-05
    z: 0.5689876364
    w: 0.822346067043
---
header: 
  seq: 47357
  stamp: 
    secs: 2440
    nsecs:  47966230
  frame_id: "map"
pose: 
  position: 
    x: 45.3894424438
    y: -297.838317871
    z: 0.255761176348
  orientation: 
    x: 0.000115018068165
    y: 3.40816883043e-05
    z: 0.572102592211
    w: 0.82018205881
---
header: 
  seq: 47358
  stamp: 
    secs: 2440
    nsecs:  97966231
  frame_id: "map"
pose: 
  position: 
    x: 45.4114532471
    y: -297.746765137
    z: 0.255755841732
  orientation: 
    x: 0.000120695579895
    y: 3.07479060684e-05
    z: 0.575300700998
    w: 0.817941983223
---
header: 
  seq: 47359
  stamp: 
    secs: 2440
    nsecs: 147966232
  frame_id: "map"
pose: 
  position: 
    x: 45.4328956604
    y: -297.65411377
    z: 0.255750775337
  orientation: 
    x: 0.00013081125404
    y: 3.10167469517e-05
    z: 0.578443876084
    w: 0.815722173382
---
header: 
  seq: 47360
  stamp: 
    secs: 2440
    nsecs: 197966233
  frame_id: "map"
pose: 
  position: 
    x: 45.4538993835
    y: -297.560394287
    z: 0.255746215582
  orientation: 
    x: 0.000139693395143
    y: 3.16754586145e-05
    z: 0.581682741959
    w: 0.813415740682
---
header: 
  seq: 47361
  stamp: 
    secs: 2440
    nsecs: 247966233
  frame_id: "map"
pose: 
  position: 
    x: 45.4749221802
    y: -297.465484619
    z: 0.255740135908
  orientation: 
    x: 0.000127064604509
    y: 1.40668329171e-05
    z: 0.584699516231
    w: 0.811249936441
---
header: 
  seq: 47362
  stamp: 
    secs: 2440
    nsecs: 297966234
  frame_id: "map"
pose: 
  position: 
    x: 45.4956741333
    y: -297.369354248
    z: 0.255734860897
  orientation: 
    x: 0.000130855372413
    y: 9.90243074379e-06
    z: 0.58778045959
    w: 0.809020465813
---
header: 
  seq: 47363
  stamp: 
    secs: 2440
    nsecs: 347966235
  frame_id: "map"
pose: 
  position: 
    x: 45.5158958435
    y: -297.271881104
    z: 0.255729973316
  orientation: 
    x: 0.000142249000765
    y: 1.16753223369e-05
    z: 0.590827602048
    w: 0.806797821196
---
header: 
  seq: 47364
  stamp: 
    secs: 2440
    nsecs: 397966236
  frame_id: "map"
pose: 
  position: 
    x: 45.5357017517
    y: -297.172973633
    z: 0.255725830793
  orientation: 
    x: 0.000153672593368
    y: 1.42513236592e-05
    z: 0.593962167089
    w: 0.804492958483
---
header: 
  seq: 47365
  stamp: 
    secs: 2440
    nsecs: 447966236
  frame_id: "map"
pose: 
  position: 
    x: 45.555229187
    y: -297.072570801
    z: 0.255720317364
  orientation: 
    x: 0.000154942119777
    y: 7.86684527313e-06
    z: 0.596993631861
    w: 0.802245959447
---
header: 
  seq: 47366
  stamp: 
    secs: 2440
    nsecs: 497966237
  frame_id: "map"
pose: 
  position: 
    x: 45.5745887756
    y: -296.970611572
    z: 0.255714833736
  orientation: 
    x: 0.000155777737943
    y: 9.08774093052e-07
    z: 0.600033213852
    w: 0.799975073366
---
header: 
  seq: 47367
  stamp: 
    secs: 2440
    nsecs: 547966238
  frame_id: "map"
pose: 
  position: 
    x: 45.5934791565
    y: -296.866912842
    z: 0.255708992481
  orientation: 
    x: 0.00016630246681
    y: 9.40639031448e-07
    z: 0.603058368778
    w: 0.797697045369
---
header: 
  seq: 47368
  stamp: 
    secs: 2440
    nsecs: 597966239
  frame_id: "map"
pose: 
  position: 
    x: 45.6119194031
    y: -296.761444092
    z: 0.255703568459
  orientation: 
    x: 0.000178796831844
    y: 3.09491575609e-06
    z: 0.606157114942
    w: 0.795344906331
---
header: 
  seq: 47369
  stamp: 
    secs: 2440
    nsecs: 647966239
  frame_id: "map"
pose: 
  position: 
    x: 45.6298141479
    y: -296.654022217
    z: 0.255698204041
  orientation: 
    x: 0.000191799696832
    y: 5.45278325759e-06
    z: 0.609268016376
    w: 0.792964341824
---
header: 
  seq: 47370
  stamp: 
    secs: 2440
    nsecs: 697966240
  frame_id: "map"
pose: 
  position: 
    x: 45.6478462219
    y: -296.544708252
    z: 0.255691021681
  orientation: 
    x: 0.00017918014279
    y: -1.40591148561e-05
    z: 0.612247183838
    w: 0.790666398413
---
header: 
  seq: 47371
  stamp: 
    secs: 2440
    nsecs: 747966241
  frame_id: "map"
pose: 
  position: 
    x: 45.6655158997
    y: -296.433288574
    z: 0.255684494972
  orientation: 
    x: 0.000185585967168
    y: -1.82537112471e-05
    z: 0.615223510492
    w: 0.788352711267
---
header: 
  seq: 47372
  stamp: 
    secs: 2440
    nsecs: 797966242
  frame_id: "map"
pose: 
  position: 
    x: 45.6830062866
    y: -296.319732666
    z: 0.255678296089
  orientation: 
    x: 0.000186710926934
    y: -2.58299271093e-05
    z: 0.618153203819
    w: 0.78605761944
---
header: 
  seq: 47373
  stamp: 
    secs: 2440
    nsecs: 847966242
  frame_id: "map"
pose: 
  position: 
    x: 45.7000312805
    y: -296.20401001
    z: 0.255674123764
  orientation: 
    x: 0.000196951743461
    y: -2.3628241905e-05
    z: 0.621104756935
    w: 0.783727530181
---
header: 
  seq: 47374
  stamp: 
    secs: 2440
    nsecs: 897966243
  frame_id: "map"
pose: 
  position: 
    x: 45.7164878845
    y: -296.086212158
    z: 0.25567138195
  orientation: 
    x: 0.000208947479308
    y: -1.73317197121e-05
    z: 0.624095075763
    w: 0.781348380973
---
header: 
  seq: 47375
  stamp: 
    secs: 2440
    nsecs: 947966244
  frame_id: "map"
pose: 
  position: 
    x: 45.7323150635
    y: -295.966339111
    z: 0.255670160055
  orientation: 
    x: 0.00021971774889
    y: -1.00445913995e-05
    z: 0.627123682153
    w: 0.778919661394
---
header: 
  seq: 47376
  stamp: 
    secs: 2440
    nsecs: 997966245
  frame_id: "map"
pose: 
  position: 
    x: 45.7474594116
    y: -295.844329834
    z: 0.255669057369
  orientation: 
    x: 0.000228957719062
    y: -3.01416365681e-06
    z: 0.630191017569
    w: 0.776440100036
---
header: 
  seq: 47377
  stamp: 
    secs: 2441
    nsecs:  47966245
  frame_id: "map"
pose: 
  position: 
    x: 45.7625427246
    y: -295.720184326
    z: 0.255667030811
  orientation: 
    x: 0.000212934379426
    y: -1.85003023436e-05
    z: 0.633107710469
    w: 0.774063680366
---
header: 
  seq: 47378
  stamp: 
    secs: 2441
    nsecs:  97966246
  frame_id: "map"
pose: 
  position: 
    x: 45.7771224976
    y: -295.593841553
    z: 0.255665272474
  orientation: 
    x: 0.000214487377985
    y: -1.90994304794e-05
    z: 0.636023046104
    w: 0.771670032109
---
header: 
  seq: 47379
  stamp: 
    secs: 2441
    nsecs: 147966247
  frame_id: "map"
pose: 
  position: 
    x: 45.791015625
    y: -295.465301514
    z: 0.255663663149
  orientation: 
    x: 0.000223847814519
    y: -1.3118855347e-05
    z: 0.638973940979
    w: 0.769228348717
---
header: 
  seq: 47380
  stamp: 
    secs: 2441
    nsecs: 197966248
  frame_id: "map"
pose: 
  position: 
    x: 45.8041496277
    y: -295.334442139
    z: 0.255661278963
  orientation: 
    x: 0.000235490517804
    y: -6.19416025333e-06
    z: 0.641964112817
    w: 0.76673464925
---
header: 
  seq: 47381
  stamp: 
    secs: 2441
    nsecs: 247966248
  frame_id: "map"
pose: 
  position: 
    x: 45.816493988
    y: -295.201080322
    z: 0.25565764308
  orientation: 
    x: 0.000247909684526
    y: -4.13896480557e-07
    z: 0.644996908384
    w: 0.764185139031
---
header: 
  seq: 47382
  stamp: 
    secs: 2441
    nsecs: 297966249
  frame_id: "map"
pose: 
  position: 
    x: 45.8280105591
    y: -295.065216064
    z: 0.255653262138
  orientation: 
    x: 0.000260236582395
    y: 4.03194227711e-06
    z: 0.648073125105
    w: 0.761578070048
---
header: 
  seq: 47383
  stamp: 
    secs: 2441
    nsecs: 347966250
  frame_id: "map"
pose: 
  position: 
    x: 45.8394432068
    y: -294.92666626
    z: 0.255646973848
  orientation: 
    x: 0.000242057127003
    y: -2.02904829266e-05
    z: 0.650961827697
    w: 0.759110426669
---
header: 
  seq: 47384
  stamp: 
    secs: 2441
    nsecs: 397966250
  frame_id: "map"
pose: 
  position: 
    x: 45.8502883911
    y: -294.785430908
    z: 0.25564172864
  orientation: 
    x: 0.000244271300002
    y: -2.55591573768e-05
    z: 0.6538359457
    w: 0.756636303509
---
header: 
  seq: 47385
  stamp: 
    secs: 2441
    nsecs: 447966251
  frame_id: "map"
pose: 
  position: 
    x: 45.8611602783
    y: -294.641601562
    z: 0.255636423826
  orientation: 
    x: 0.000223629918031
    y: -5.1036045655e-05
    z: 0.65649979311
    w: 0.754326168863
---
header: 
  seq: 47386
  stamp: 
    secs: 2441
    nsecs: 497966252
  frame_id: "map"
pose: 
  position: 
    x: 45.8720016479
    y: -294.494995117
    z: 0.255631417036
  orientation: 
    x: 0.000208798579211
    y: -7.12026653954e-05
    z: 0.65899484519
    w: 0.752147422615
---
header: 
  seq: 47387
  stamp: 
    secs: 2441
    nsecs: 547966253
  frame_id: "map"
pose: 
  position: 
    x: 45.8822784424
    y: -294.345611572
    z: 0.255627602339
  orientation: 
    x: 0.000217946733715
    y: -6.88476280678e-05
    z: 0.661484316425
    w: 0.749958963466
---
header: 
  seq: 47388
  stamp: 
    secs: 2441
    nsecs: 597966253
  frame_id: "map"
pose: 
  position: 
    x: 45.8923339844
    y: -294.19342041
    z: 0.255623608828
  orientation: 
    x: 0.000215176628486
    y: -7.71852939268e-05
    z: 0.663852502868
    w: 0.747863491673
---
header: 
  seq: 47389
  stamp: 
    secs: 2441
    nsecs: 647966254
  frame_id: "map"
pose: 
  position: 
    x: 45.9017944336
    y: -294.038360596
    z: 0.255620151758
  orientation: 
    x: 0.000226583819934
    y: -7.18063084402e-05
    z: 0.66621335759
    w: 0.745761158597
---
header: 
  seq: 47390
  stamp: 
    secs: 2441
    nsecs: 697966255
  frame_id: "map"
pose: 
  position: 
    x: 45.9115715027
    y: -293.880340576
    z: 0.255615830421
  orientation: 
    x: 0.000202961287251
    y: -9.96245084486e-05
    z: 0.668298658837
    w: 0.743893037659
---
header: 
  seq: 47391
  stamp: 
    secs: 2441
    nsecs: 747966256
  frame_id: "map"
pose: 
  position: 
    x: 45.9210205078
    y: -293.719299316
    z: 0.255612105131
  orientation: 
    x: 0.000206316018054
    y: -0.0001021482271
    z: 0.670326603131
    w: 0.742066164257
---
header: 
  seq: 47392
  stamp: 
    secs: 2441
    nsecs: 797966256
  frame_id: "map"
pose: 
  position: 
    x: 45.9298286438
    y: -293.555297852
    z: 0.255609124899
  orientation: 
    x: 0.000222354870666
    y: -9.19344459206e-05
    z: 0.672376562498
    w: 0.740209227387
---
header: 
  seq: 47393
  stamp: 
    secs: 2441
    nsecs: 847966257
  frame_id: "map"
pose: 
  position: 
    x: 45.9375495911
    y: -293.388275146
    z: 0.25560721755
  orientation: 
    x: 0.000253211575335
    y: -6.65599972108e-05
    z: 0.674553801169
    w: 0.738225643542
---
header: 
  seq: 47394
  stamp: 
    secs: 2441
    nsecs: 897966258
  frame_id: "map"
pose: 
  position: 
    x: 45.9442901611
    y: -293.218200684
    z: 0.255605340004
  orientation: 
    x: 0.000273628975302
    y: -4.99580666653e-05
    z: 0.676791701023
    w: 0.736174514676
---
header: 
  seq: 47395
  stamp: 
    secs: 2441
    nsecs: 947966259
  frame_id: "map"
pose: 
  position: 
    x: 45.9540596008
    y: -293.045196533
    z: 0.255601882935
  orientation: 
    x: 0.000136281657294
    y: -0.00018194349999
    z: 0.677958579958
    w: 0.735100069504
---
header: 
  seq: 47396
  stamp: 
    secs: 2441
    nsecs: 997966259
  frame_id: "map"
pose: 
  position: 
    x: 45.9650344849
    y: -292.869171143
    z: 0.255598634481
  orientation: 
    x: 8.96314678142e-05
    y: -0.000230372809296
    z: 0.67876448083
    w: 0.734355988917
---
header: 
  seq: 47397
  stamp: 
    secs: 2442
    nsecs:  47966260
  frame_id: "map"
pose: 
  position: 
    x: 45.9750518799
    y: -292.690032959
    z: 0.255596995354
  orientation: 
    x: 0.000137199834596
    y: -0.000189138702486
    z: 0.679827539687
    w: 0.733371980434
---
header: 
  seq: 47398
  stamp: 
    secs: 2442
    nsecs:  97966261
  frame_id: "map"
pose: 
  position: 
    x: 45.9843902588
    y: -292.507781982
    z: 0.255595773458
  orientation: 
    x: 0.000176515540358
    y: -0.000154510070997
    z: 0.680997801317
    w: 0.732285422202
---
header: 
  seq: 47399
  stamp: 
    secs: 2442
    nsecs: 147966262
  frame_id: "map"
pose: 
  position: 
    x: 45.9920158386
    y: -292.322479248
    z: 0.255596220493
  orientation: 
    x: 0.000246775319531
    y: -8.80930051496e-05
    z: 0.682534379054
    w: 0.730853441362
---
header: 
  seq: 47400
  stamp: 
    secs: 2442
    nsecs: 197966262
  frame_id: "map"
pose: 
  position: 
    x: 45.9984855652
    y: -292.134094238
    z: 0.255596607924
  orientation: 
    x: 0.000280428202836
    y: -5.5651664384e-05
    z: 0.684211721922
    w: 0.729283372803
---
header: 
  seq: 47401
  stamp: 
    secs: 2442
    nsecs: 247966263
  frame_id: "map"
pose: 
  position: 
    x: 46.0040893555
    y: -291.942687988
    z: 0.255596965551
  orientation: 
    x: 0.000291423398582
    y: -4.40949214665e-05
    z: 0.685925033359
    w: 0.727672152648
---
header: 
  seq: 47402
  stamp: 
    secs: 2442
    nsecs: 297966264
  frame_id: "map"
pose: 
  position: 
    x: 46.0088577271
    y: -291.748260498
    z: 0.255597680807
  orientation: 
    x: 0.000293868474119
    y: -4.00326253119e-05
    z: 0.687660749957
    w: 0.726032096403
---
header: 
  seq: 47403
  stamp: 
    secs: 2442
    nsecs: 347966265
  frame_id: "map"
pose: 
  position: 
    x: 46.0138893127
    y: -291.550842285
    z: 0.255597770214
  orientation: 
    x: 0.000251364680408
    y: -7.95300271223e-05
    z: 0.689103691236
    w: 0.724662703066
---
header: 
  seq: 47404
  stamp: 
    secs: 2442
    nsecs: 397966265
  frame_id: "map"
pose: 
  position: 
    x: 46.018699646
    y: -291.350494385
    z: 0.25559848547
  orientation: 
    x: 0.000233784721241
    y: -9.50770481852e-05
    z: 0.690447251742
    w: 0.723382698762
---
header: 
  seq: 47405
  stamp: 
    secs: 2442
    nsecs: 447966266
  frame_id: "map"
pose: 
  position: 
    x: 46.0229759216
    y: -291.147247314
    z: 0.255599737167
  orientation: 
    x: 0.000230962202737
    y: -9.53717525567e-05
    z: 0.691777330745
    w: 0.722110837911
---
header: 
  seq: 47406
  stamp: 
    secs: 2442
    nsecs: 497966267
  frame_id: "map"
pose: 
  position: 
    x: 46.0266151428
    y: -290.941101074
    z: 0.255601584911
  orientation: 
    x: 0.000234601125898
    y: -8.85545723866e-05
    z: 0.693114618282
    w: 0.72082734621
---
header: 
  seq: 47407
  stamp: 
    secs: 2442
    nsecs: 547966268
  frame_id: "map"
pose: 
  position: 
    x: 46.0295448303
    y: -290.732177734
    z: 0.255603760481
  orientation: 
    x: 0.000239739932215
    y: -7.98353339978e-05
    z: 0.69446504615
    w: 0.719526396894
---
header: 
  seq: 47408
  stamp: 
    secs: 2442
    nsecs: 597966268
  frame_id: "map"
pose: 
  position: 
    x: 46.0317382812
    y: -290.520507812
    z: 0.255606383085
  orientation: 
    x: 0.000244137080188
    y: -7.09510594684e-05
    z: 0.695828668612
    w: 0.718207768894
---
header: 
  seq: 47409
  stamp: 
    secs: 2442
    nsecs: 647966269
  frame_id: "map"
pose: 
  position: 
    x: 46.0338745117
    y: -290.306152344
    z: 0.255608975887
  orientation: 
    x: 0.000220523188534
    y: -8.93768151728e-05
    z: 0.697008675867
    w: 0.717062653572
---
header: 
  seq: 47410
  stamp: 
    secs: 2442
    nsecs: 697966270
  frame_id: "map"
pose: 
  position: 
    x: 46.03565979
    y: -290.089202881
    z: 0.25561195612
  orientation: 
    x: 0.000210929569173
    y: -9.36954461931e-05
    z: 0.698119970842
    w: 0.715980763039
---
header: 
  seq: 47411
  stamp: 
    secs: 2442
    nsecs: 747966271
  frame_id: "map"
pose: 
  position: 
    x: 46.036857605
    y: -289.869689941
    z: 0.255615264177
  orientation: 
    x: 0.000210977014278
    y: -8.7877601655e-05
    z: 0.699229254654
    w: 0.71489747321
---
header: 
  seq: 47412
  stamp: 
    secs: 2442
    nsecs: 797966271
  frame_id: "map"
pose: 
  position: 
    x: 46.0374107361
    y: -289.647705078
    z: 0.25561901927
  orientation: 
    x: 0.000213815688479
    y: -7.86343360856e-05
    z: 0.70034598258
    w: 0.713803511327
---
header: 
  seq: 47413
  stamp: 
    secs: 2442
    nsecs: 847966272
  frame_id: "map"
pose: 
  position: 
    x: 46.0377922058
    y: -289.423309326
    z: 0.255622893572
  orientation: 
    x: 0.000197517495027
    y: -8.82093477315e-05
    z: 0.701332392062
    w: 0.712834362983
---
header: 
  seq: 47414
  stamp: 
    secs: 2442
    nsecs: 897966273
  frame_id: "map"
pose: 
  position: 
    x: 46.0377960205
    y: -289.196563721
    z: 0.255627095699
  orientation: 
    x: 0.000190558534842
    y: -8.79795442779e-05
    z: 0.702267789707
    w: 0.711912851048
---
header: 
  seq: 47415
  stamp: 
    secs: 2442
    nsecs: 947966274
  frame_id: "map"
pose: 
  position: 
    x: 46.0377197266
    y: -288.96762085
    z: 0.255631446838
  orientation: 
    x: 0.000173308157845
    y: -9.77084686752e-05
    z: 0.703078036204
    w: 0.711112674212
---
header: 
  seq: 47416
  stamp: 
    secs: 2442
    nsecs: 997966274
  frame_id: "map"
pose: 
  position: 
    x: 46.0373382568
    y: -288.736480713
    z: 0.255635976791
  orientation: 
    x: 0.000166847098634
    y: -9.63924818618e-05
    z: 0.703839937132
    w: 0.710358575488
---
header: 
  seq: 47417
  stamp: 
    secs: 2443
    nsecs:  47966275
  frame_id: "map"
pose: 
  position: 
    x: 46.0365180969
    y: -288.503265381
    z: 0.255640506744
  orientation: 
    x: 0.000167132095878
    y: -8.85577055167e-05
    z: 0.704597770195
    w: 0.709606895725
---
header: 
  seq: 47418
  stamp: 
    secs: 2443
    nsecs:  97966276
  frame_id: "map"
pose: 
  position: 
    x: 46.0351982117
    y: -288.268035889
    z: 0.25564467907
  orientation: 
    x: 0.000169291602646
    y: -7.91765317191e-05
    z: 0.705359095297
    w: 0.708850133493
---
header: 
  seq: 47419
  stamp: 
    secs: 2443
    nsecs: 147966277
  frame_id: "map"
pose: 
  position: 
    x: 46.0333747864
    y: -288.030792236
    z: 0.255648940802
  orientation: 
    x: 0.000171136374878
    y: -7.01682140433e-05
    z: 0.706124934719
    w: 0.708087242053
---
header: 
  seq: 47420
  stamp: 
    secs: 2443
    nsecs: 197966277
  frame_id: "map"
pose: 
  position: 
    x: 46.0316352844
    y: -287.791687012
    z: 0.255653172731
  orientation: 
    x: 0.000149237811696
    y: -8.48800073724e-05
    z: 0.706730942939
    w: 0.707482398944
---
header: 
  seq: 47421
  stamp: 
    secs: 2443
    nsecs: 247966278
  frame_id: "map"
pose: 
  position: 
    x: 46.0297698975
    y: -287.550750732
    z: 0.255657732487
  orientation: 
    x: 0.000137929056983
    y: -8.83883254173e-05
    z: 0.707266353696
    w: 0.706947153677
---
header: 
  seq: 47422
  stamp: 
    secs: 2443
    nsecs: 297966279
  frame_id: "map"
pose: 
  position: 
    x: 46.0278396606
    y: -287.308166504
    z: 0.255662530661
  orientation: 
    x: 0.000125371442719
    y: -9.28366421032e-05
    z: 0.707723045999
    w: 0.706489961588
---
header: 
  seq: 47423
  stamp: 
    secs: 2443
    nsecs: 347966280
  frame_id: "map"
pose: 
  position: 
    x: 46.0257415771
    y: -287.063964844
    z: 0.255668014288
  orientation: 
    x: 0.000120106658988
    y: -8.90647698551e-05
    z: 0.70814771341
    w: 0.706064298513
---
header: 
  seq: 47424
  stamp: 
    secs: 2443
    nsecs: 397966280
  frame_id: "map"
pose: 
  position: 
    x: 46.0233650208
    y: -286.818267822
    z: 0.255673617125
  orientation: 
    x: 0.000118720455112
    y: -8.08934469413e-05
    z: 0.708568413814
    w: 0.705642106387
---
header: 
  seq: 47425
  stamp: 
    secs: 2443
    nsecs: 447966281
  frame_id: "map"
pose: 
  position: 
    x: 46.0209655762
    y: -286.57119751
    z: 0.255679607391
  orientation: 
    x: 0.000107761884598
    y: -8.20021355343e-05
    z: 0.708915986816
    w: 0.705292921629
---
header: 
  seq: 47426
  stamp: 
    secs: 2443
    nsecs: 497966282
  frame_id: "map"
pose: 
  position: 
    x: 46.0184516907
    y: -286.322875977
    z: 0.255686193705
  orientation: 
    x: 0.000101019417144
    y: -7.7782714376e-05
    z: 0.70923058039
    w: 0.704976572366
---
header: 
  seq: 47427
  stamp: 
    secs: 2443
    nsecs: 547966283
  frame_id: "map"
pose: 
  position: 
    x: 46.0157394409
    y: -286.073455811
    z: 0.255693435669
  orientation: 
    x: 9.71877583803e-05
    y: -6.9619734053e-05
    z: 0.709539637856
    w: 0.704665514992
---
header: 
  seq: 47428
  stamp: 
    secs: 2443
    nsecs: 597966283
  frame_id: "map"
pose: 
  position: 
    x: 46.0132026672
    y: -285.823059082
    z: 0.256167709827
  orientation: 
    x: 7.58618726963e-05
    y: -7.67985600163e-05
    z: 0.709741252801
    w: 0.704462449262
---
header: 
  seq: 47429
  stamp: 
    secs: 2443
    nsecs: 647966284
  frame_id: "map"
pose: 
  position: 
    x: 46.0106887817
    y: -285.571807861
    z: 0.256527125835
  orientation: 
    x: 6.64404243518e-05
    y: -7.26698796108e-05
    z: 0.70989638925
    w: 0.704306117277
---
header: 
  seq: 47430
  stamp: 
    secs: 2443
    nsecs: 697966285
  frame_id: "map"
pose: 
  position: 
    x: 46.0081062317
    y: -285.319885254
    z: 0.256637424231
  orientation: 
    x: 6.18204540182e-05
    y: -6.24320835393e-05
    z: 0.71004994471
    w: 0.704151310655
---
header: 
  seq: 47431
  stamp: 
    secs: 2443
    nsecs: 747966286
  frame_id: "map"
pose: 
  position: 
    x: 46.0053939819
    y: -285.067016602
    z: 0.256615966558
  orientation: 
    x: 6.31980133473e-05
    y: -5.72327514177e-05
    z: 0.710190435497
    w: 0.704009615033
---
header: 
  seq: 47432
  stamp: 
    secs: 2443
    nsecs: 797966286
  frame_id: "map"
pose: 
  position: 
    x: 46.0027427673
    y: -284.814941406
    z: 0.256564170122
  orientation: 
    x: 4.2839029666e-05
    y: -3.85697851247e-05
    z: 0.710372418089
    w: 0.703825990068
---
header: 
  seq: 47433
  stamp: 
    secs: 2443
    nsecs: 847966287
  frame_id: "map"
pose: 
  position: 
    x: 45.9997825623
    y: -284.562316895
    z: 0.256487637758
  orientation: 
    x: 3.59742685995e-05
    y: -2.98316491354e-05
    z: 0.710339240813
    w: 0.703859475163
---
header: 
  seq: 47434
  stamp: 
    secs: 2443
    nsecs: 897966288
  frame_id: "map"
pose: 
  position: 
    x: 45.9972610474
    y: -284.311950684
    z: 0.256269931793
  orientation: 
    x: 1.23021803585e-05
    y: -6.2119604411e-06
    z: 0.710662937749
    w: 0.703532649363
---
header: 
  seq: 47435
  stamp: 
    secs: 2443
    nsecs: 947966288
  frame_id: "map"
pose: 
  position: 
    x: 45.9943656921
    y: -284.060150146
    z: 0.256307125092
  orientation: 
    x: 1.63484619119e-05
    y: -6.78295349311e-06
    z: 0.710768414604
    w: 0.703426087437
---
header: 
  seq: 47436
  stamp: 
    secs: 2443
    nsecs: 997966289
  frame_id: "map"
pose: 
  position: 
    x: 45.9914627075
    y: -283.807403564
    z: 0.256305009127
  orientation: 
    x: 2.08388852302e-05
    y: -2.24972581301e-05
    z: 0.710765089095
    w: 0.703429447197
---
header: 
  seq: 47437
  stamp: 
    secs: 2444
    nsecs:  47966290
  frame_id: "map"
pose: 
  position: 
    x: 45.9888572693
    y: -283.556549072
    z: 0.256323933601
  orientation: 
    x: -3.22664068331e-07
    y: -3.80129382312e-06
    z: 0.710960358365
    w: 0.703232087449
---
header: 
  seq: 47438
  stamp: 
    secs: 2444
    nsecs:  97966291
  frame_id: "map"
pose: 
  position: 
    x: 45.9859275818
    y: -283.305023193
    z: 0.256178885698
  orientation: 
    x: 8.59638248708e-06
    y: -1.73383703518e-06
    z: 0.711017898398
    w: 0.703173910268
---
header: 
  seq: 47439
  stamp: 
    secs: 2444
    nsecs: 147966291
  frame_id: "map"
pose: 
  position: 
    x: 45.9828681946
    y: -283.05267334
    z: 0.256240993738
  orientation: 
    x: 2.06587943175e-05
    y: -8.947239709e-06
    z: 0.711069207479
    w: 0.703122024736
---
header: 
  seq: 47440
  stamp: 
    secs: 2444
    nsecs: 197966292
  frame_id: "map"
pose: 
  position: 
    x: 45.980014801
    y: -282.800872803
    z: 0.256282567978
  orientation: 
    x: 8.58732005347e-06
    y: -8.86335529297e-06
    z: 0.711171252726
    w: 0.703018811373
---
header: 
  seq: 47441
  stamp: 
    secs: 2444
    nsecs: 247966293
  frame_id: "map"
pose: 
  position: 
    x: 45.977142334
    y: -282.549591064
    z: 0.256081730127
  orientation: 
    x: 2.84404158728e-08
    y: -3.0236832338e-06
    z: 0.711225733183
    w: 0.702963694972
---
header: 
  seq: 47442
  stamp: 
    secs: 2444
    nsecs: 297966294
  frame_id: "map"
pose: 
  position: 
    x: 45.9741783142
    y: -282.297851562
    z: 0.256200402975
  orientation: 
    x: 6.48611190448e-06
    y: -6.41060215977e-06
    z: 0.711234672407
    w: 0.702954650517
---
header: 
  seq: 47443
  stamp: 
    secs: 2444
    nsecs: 347966294
  frame_id: "map"
pose: 
  position: 
    x: 45.9712791443
    y: -282.04598999
    z: 0.256262898445
  orientation: 
    x: 5.74820912146e-06
    y: -1.05489008166e-05
    z: 0.711240475785
    w: 0.702948778689
---
header: 
  seq: 47444
  stamp: 
    secs: 2444
    nsecs: 397966295
  frame_id: "map"
pose: 
  position: 
    x: 45.9682846069
    y: -281.793518066
    z: 0.256282418966
  orientation: 
    x: 1.21613715364e-05
    y: -1.8389123932e-05
    z: 0.711146163906
    w: 0.703044189987
---
header: 
  seq: 47445
  stamp: 
    secs: 2444
    nsecs: 447966296
  frame_id: "map"
pose: 
  position: 
    x: 45.9655838013
    y: -281.542449951
    z: 0.256128847599
  orientation: 
    x: 4.34269296073e-06
    y: -8.41001007147e-06
    z: 0.711289569006
    w: 0.702899102954
---
header: 
  seq: 47446
  stamp: 
    secs: 2444
    nsecs: 497966297
  frame_id: "map"
pose: 
  position: 
    x: 45.9626998901
    y: -281.290435791
    z: 0.2562263906
  orientation: 
    x: 6.73078403483e-06
    y: -1.22682770036e-05
    z: 0.711263688986
    w: 0.702925290863
---
header: 
  seq: 47447
  stamp: 
    secs: 2444
    nsecs: 547966297
  frame_id: "map"
pose: 
  position: 
    x: 45.9598388672
    y: -281.037994385
    z: 0.256268560886
  orientation: 
    x: 1.26723934094e-05
    y: -1.88903925559e-05
    z: 0.711234391369
    w: 0.702954934556
---
header: 
  seq: 47448
  stamp: 
    secs: 2444
    nsecs: 597966298
  frame_id: "map"
pose: 
  position: 
    x: 45.9570465088
    y: -280.786590576
    z: 0.256123960018
  orientation: 
    x: 4.09437925744e-06
    y: -1.34087256e-05
    z: 0.711195591509
    w: 0.702994189465
---
header: 
  seq: 47449
  stamp: 
    secs: 2444
    nsecs: 647966299
  frame_id: "map"
pose: 
  position: 
    x: 45.9542808533
    y: -280.534667969
    z: 0.256231218576
  orientation: 
    x: 3.15038034645e-06
    y: -1.36000111991e-05
    z: 0.711152857528
    w: 0.70303741937
---
header: 
  seq: 47450
  stamp: 
    secs: 2444
    nsecs: 697966300
  frame_id: "map"
pose: 
  position: 
    x: 45.9515724182
    y: -280.282623291
    z: 0.256279945374
  orientation: 
    x: 5.003687593e-06
    y: -1.65570678193e-05
    z: 0.71110529937
    w: 0.703085523183
---
header: 
  seq: 47451
  stamp: 
    secs: 2444
    nsecs: 747966300
  frame_id: "map"
pose: 
  position: 
    x: 45.9489097595
    y: -280.031829834
    z: 0.256138145924
  orientation: 
    x: -4.66062635286e-06
    y: -7.00190604146e-06
    z: 0.711055678364
    w: 0.703135706813
---
header: 
  seq: 47452
  stamp: 
    secs: 2444
    nsecs: 797966301
  frame_id: "map"
pose: 
  position: 
    x: 45.9462890625
    y: -279.780731201
    z: 0.256246954203
  orientation: 
    x: -6.78008487598e-06
    y: -4.90591897796e-06
    z: 0.711005913221
    w: 0.703186028939
---
header: 
  seq: 47453
  stamp: 
    secs: 2444
    nsecs: 847966302
  frame_id: "map"
pose: 
  position: 
    x: 45.9436988831
    y: -279.530181885
    z: 0.256080150604
  orientation: 
    x: -1.05655638501e-05
    y: 3.3690429038e-07
    z: 0.710958860117
    w: 0.703233602091
---
header: 
  seq: 47454
  stamp: 
    secs: 2444
    nsecs: 897966303
  frame_id: "map"
pose: 
  position: 
    x: 45.9411468506
    y: -279.279846191
    z: 0.256225079298
  orientation: 
    x: -1.13104686566e-05
    y: 1.4491328468e-06
    z: 0.710913021229
    w: 0.703279941501
---
header: 
  seq: 47455
  stamp: 
    secs: 2444
    nsecs: 947966303
  frame_id: "map"
pose: 
  position: 
    x: 45.9386329651
    y: -279.029998779
    z: 0.256076067686
  orientation: 
    x: -1.37924391341e-05
    y: 4.28023905793e-06
    z: 0.710867272963
    w: 0.703326183233
---
header: 
  seq: 47456
  stamp: 
    secs: 2444
    nsecs: 997966304
  frame_id: "map"
pose: 
  position: 
    x: 45.9361457825
    y: -278.780578613
    z: 0.255670845509
  orientation: 
    x: -1.52750520384e-05
    y: 5.7484805357e-06
    z: 0.710821755841
    w: 0.703372185374
---
header: 
  seq: 47457
  stamp: 
    secs: 2445
    nsecs:  47966305
  frame_id: "map"
pose: 
  position: 
    x: 45.9337348938
    y: -278.531646729
    z: 0.255490958691
  orientation: 
    x: -1.84923655456e-05
    y: 6.31139543621e-06
    z: 0.710766728603
    w: 0.703427790984
---
header: 
  seq: 47458
  stamp: 
    secs: 2445
    nsecs:  97966306
  frame_id: "map"
pose: 
  position: 
    x: 45.931388855
    y: -278.283172607
    z: 0.255446135998
  orientation: 
    x: -2.0578892816e-05
    y: 7.25466868371e-06
    z: 0.710707013272
    w: 0.703488124143
---
header: 
  seq: 47459
  stamp: 
    secs: 2445
    nsecs: 147966306
  frame_id: "map"
pose: 
  position: 
    x: 45.9290924072
    y: -278.03515625
    z: 0.255473613739
  orientation: 
    x: -2.19093001396e-05
    y: 8.19941339473e-06
    z: 0.71064677756
    w: 0.703548972706
---
header: 
  seq: 47460
  stamp: 
    secs: 2445
    nsecs: 197966307
  frame_id: "map"
pose: 
  position: 
    x: 45.9268875122
    y: -277.787658691
    z: 0.255533128977
  orientation: 
    x: -2.41699063271e-05
    y: 7.44266855465e-06
    z: 0.71057449722
    w: 0.703621974686
---
header: 
  seq: 47461
  stamp: 
    secs: 2445
    nsecs: 247966308
  frame_id: "map"
pose: 
  position: 
    x: 45.9247627258
    y: -277.540588379
    z: 0.255600243807
  orientation: 
    x: -2.50700934896e-05
    y: 7.21324921478e-06
    z: 0.710496493489
    w: 0.703700740414
---
header: 
  seq: 47462
  stamp: 
    secs: 2445
    nsecs: 297966309
  frame_id: "map"
pose: 
  position: 
    x: 45.9227485657
    y: -277.293945312
    z: 0.255661934614
  orientation: 
    x: -2.65686198179e-05
    y: 5.7029105122e-06
    z: 0.710406579271
    w: 0.703791511308
---
header: 
  seq: 47463
  stamp: 
    secs: 2445
    nsecs: 347966309
  frame_id: "map"
pose: 
  position: 
    x: 45.9208145142
    y: -277.047698975
    z: 0.255712360144
  orientation: 
    x: -2.6918529585e-05
    y: 4.92922752166e-06
    z: 0.71031135782
    w: 0.703887614753
---
header: 
  seq: 47464
  stamp: 
    secs: 2445
    nsecs: 397966310
  frame_id: "map"
pose: 
  position: 
    x: 45.9189605713
    y: -276.801879883
    z: 0.255750000477
  orientation: 
    x: -2.62223890734e-05
    y: 4.61850738072e-06
    z: 0.710215514046
    w: 0.703984320066
---
header: 
  seq: 47465
  stamp: 
    secs: 2445
    nsecs: 447966311
  frame_id: "map"
pose: 
  position: 
    x: 45.9171676636
    y: -276.556365967
    z: 0.255776256323
  orientation: 
    x: -2.48732354771e-05
    y: 4.03508134388e-06
    z: 0.710119563354
    w: 0.704081106909
---
header: 
  seq: 47466
  stamp: 
    secs: 2445
    nsecs: 497966312
  frame_id: "map"
pose: 
  position: 
    x: 45.9154472351
    y: -276.311218262
    z: 0.255792915821
  orientation: 
    x: -2.31856762359e-05
    y: 3.11551072034e-06
    z: 0.710023693241
    w: 0.704177786138
---
header: 
  seq: 47467
  stamp: 
    secs: 2445
    nsecs: 547966312
  frame_id: "map"
pose: 
  position: 
    x: 45.9137878418
    y: -276.066345215
    z: 0.255802333355
  orientation: 
    x: -2.08933947131e-05
    y: 2.72055129313e-06
    z: 0.709932639605
    w: 0.70426958388
---
header: 
  seq: 47468
  stamp: 
    secs: 2445
    nsecs: 597966313
  frame_id: "map"
pose: 
  position: 
    x: 45.9121780396
    y: -275.821716309
    z: 0.255806446075
  orientation: 
    x: -1.86802156769e-05
    y: 1.65297352716e-06
    z: 0.709843871989
    w: 0.704359054069
---
header: 
  seq: 47469
  stamp: 
    secs: 2445
    nsecs: 647966314
  frame_id: "map"
pose: 
  position: 
    x: 45.910610199
    y: -275.577270508
    z: 0.255806982517
  orientation: 
    x: -1.60258740843e-05
    y: 5.21822377143e-07
    z: 0.709759689426
    w: 0.704443882086
---
header: 
  seq: 47470
  stamp: 
    secs: 2445
    nsecs: 697966315
  frame_id: "map"
pose: 
  position: 
    x: 45.9090957642
    y: -275.332946777
    z: 0.255805432796
  orientation: 
    x: -1.33663561555e-05
    y: -1.3659317413e-06
    z: 0.709677279181
    w: 0.704526904549
---
header: 
  seq: 47471
  stamp: 
    secs: 2445
    nsecs: 747966315
  frame_id: "map"
pose: 
  position: 
    x: 45.9076347351
    y: -275.0887146
    z: 0.255802482367
  orientation: 
    x: -1.09372191026e-05
    y: -3.40130031788e-06
    z: 0.709595797464
    w: 0.704608972474
---
header: 
  seq: 47472
  stamp: 
    secs: 2445
    nsecs: 797966316
  frame_id: "map"
pose: 
  position: 
    x: 45.9062080383
    y: -274.844573975
    z: 0.255798637867
  orientation: 
    x: -7.92172744391e-06
    y: -5.26938558264e-06
    z: 0.709518716495
    w: 0.704686590516
---
header: 
  seq: 47473
  stamp: 
    secs: 2445
    nsecs: 847966317
  frame_id: "map"
pose: 
  position: 
    x: 45.904838562
    y: -274.600372314
    z: 0.25579443574
  orientation: 
    x: -4.94371625598e-06
    y: -7.85207140619e-06
    z: 0.709443410077
    w: 0.70476240522
---
header: 
  seq: 47474
  stamp: 
    secs: 2445
    nsecs: 897966318
  frame_id: "map"
pose: 
  position: 
    x: 45.9035224915
    y: -274.356079102
    z: 0.255790323019
  orientation: 
    x: -2.67485406228e-06
    y: -1.12330632972e-05
    z: 0.709365749161
    w: 0.70484057331
---
header: 
  seq: 47475
  stamp: 
    secs: 2445
    nsecs: 947966318
  frame_id: "map"
pose: 
  position: 
    x: 45.9022636414
    y: -274.111602783
    z: 0.255786120892
  orientation: 
    x: 5.32516950713e-08
    y: -1.43207963681e-05
    z: 0.709286624703
    w: 0.704920196769
---
header: 
  seq: 47476
  stamp: 
    secs: 2445
    nsecs: 997966319
  frame_id: "map"
pose: 
  position: 
    x: 45.9010696411
    y: -273.866973877
    z: 0.255782097578
  orientation: 
    x: 2.78066050643e-06
    y: -1.74091440019e-05
    z: 0.709207444355
    w: 0.704999858553
---
header: 
  seq: 47477
  stamp: 
    secs: 2446
    nsecs:  47966320
  frame_id: "map"
pose: 
  position: 
    x: 45.8999214172
    y: -273.62210083
    z: 0.255778104067
  orientation: 
    x: 5.82194925631e-06
    y: -2.04353291499e-05
    z: 0.709128067275
    w: 0.705079700283
---
header: 
  seq: 47478
  stamp: 
    secs: 2446
    nsecs:  97966321
  frame_id: "map"
pose: 
  position: 
    x: 45.8988265991
    y: -273.376922607
    z: 0.255774527788
  orientation: 
    x: 8.50570114585e-06
    y: -2.34829117253e-05
    z: 0.7090483995
    w: 0.705159816313
---
header: 
  seq: 47479
  stamp: 
    secs: 2446
    nsecs: 147966321
  frame_id: "map"
pose: 
  position: 
    x: 45.8977546692
    y: -273.131408691
    z: 0.255771160126
  orientation: 
    x: 1.25225905838e-05
    y: -2.48523179009e-05
    z: 0.708977972635
    w: 0.705230624367
---
header: 
  seq: 47480
  stamp: 
    secs: 2446
    nsecs: 197966322
  frame_id: "map"
pose: 
  position: 
    x: 45.8967132568
    y: -272.885528564
    z: 0.255767941475
  orientation: 
    x: 1.56190083096e-05
    y: -2.6809454504e-05
    z: 0.708911483158
    w: 0.70529746071
---
header: 
  seq: 47481
  stamp: 
    secs: 2446
    nsecs: 247966323
  frame_id: "map"
pose: 
  position: 
    x: 45.8956489563
    y: -272.639221191
    z: 0.255765020847
  orientation: 
    x: 2.04674618379e-05
    y: -2.67527753399e-05
    z: 0.70886226943
    w: 0.705346923041
---
header: 
  seq: 47482
  stamp: 
    secs: 2446
    nsecs: 297966324
  frame_id: "map"
pose: 
  position: 
    x: 45.8945884705
    y: -272.392486572
    z: 0.255762308836
  orientation: 
    x: 2.36866056024e-05
    y: -2.80805344555e-05
    z: 0.708820566494
    w: 0.705388831188
---
header: 
  seq: 47483
  stamp: 
    secs: 2446
    nsecs: 347966324
  frame_id: "map"
pose: 
  position: 
    x: 45.8935813904
    y: -272.145263672
    z: 0.255759686232
  orientation: 
    x: 2.4566339371e-05
    y: -3.15899671847e-05
    z: 0.708770970502
    w: 0.705438664784
---
header: 
  seq: 47484
  stamp: 
    secs: 2446
    nsecs: 397966325
  frame_id: "map"
pose: 
  position: 
    x: 45.8926277161
    y: -271.897521973
    z: 0.255757033825
  orientation: 
    x: 2.57789072583e-05
    y: -3.46801242968e-05
    z: 0.708717472427
    w: 0.705492411305
---
header: 
  seq: 47485
  stamp: 
    secs: 2446
    nsecs: 447966326
  frame_id: "map"
pose: 
  position: 
    x: 45.8917274475
    y: -271.649169922
    z: 0.255754500628
  orientation: 
    x: 2.65725512477e-05
    y: -3.81061646616e-05
    z: 0.708656172423
    w: 0.705553985978
---
header: 
  seq: 47486
  stamp: 
    secs: 2446
    nsecs: 497966326
  frame_id: "map"
pose: 
  position: 
    x: 45.8908920288
    y: -271.400238037
    z: 0.255752056837
  orientation: 
    x: 2.79291664098e-05
    y: -4.09663374967e-05
    z: 0.708591672492
    w: 0.705618763368
---
header: 
  seq: 47487
  stamp: 
    secs: 2446
    nsecs: 547966327
  frame_id: "map"
pose: 
  position: 
    x: 45.8900947571
    y: -271.150665283
    z: 0.255749493837
  orientation: 
    x: 2.98067794462e-05
    y: -4.32186558512e-05
    z: 0.708526367942
    w: 0.705684336778
---
header: 
  seq: 47488
  stamp: 
    secs: 2446
    nsecs: 597966328
  frame_id: "map"
pose: 
  position: 
    x: 45.8893203735
    y: -270.900390625
    z: 0.256212443113
  orientation: 
    x: 3.32534116326e-05
    y: -4.440269672e-05
    z: 0.708467353767
    w: 0.705743583441
---
header: 
  seq: 47489
  stamp: 
    secs: 2446
    nsecs: 647966329
  frame_id: "map"
pose: 
  position: 
    x: 45.8885765076
    y: -270.649414062
    z: 0.256560772657
  orientation: 
    x: 3.60325935603e-05
    y: -4.64259656514e-05
    z: 0.70841096611
    w: 0.705800183934
---
header: 
  seq: 47490
  stamp: 
    secs: 2446
    nsecs: 697966329
  frame_id: "map"
pose: 
  position: 
    x: 45.8878669739
    y: -270.397735596
    z: 0.256661057472
  orientation: 
    x: 3.72110628759e-05
    y: -4.76068819194e-05
    z: 0.708354386002
    w: 0.705856968642
---
header: 
  seq: 47491
  stamp: 
    secs: 2446
    nsecs: 747966330
  frame_id: "map"
pose: 
  position: 
    x: 45.8871917725
    y: -270.144897461
    z: 0.256629377604
  orientation: 
    x: 4.37932892647e-05
    y: -5.41736353042e-05
    z: 0.708298552931
    w: 0.705912993976
---
header: 
  seq: 47492
  stamp: 
    secs: 2446
    nsecs: 797966331
  frame_id: "map"
pose: 
  position: 
    x: 45.8865623474
    y: -269.892456055
    z: 0.256566643715
  orientation: 
    x: 3.32581119394e-05
    y: -4.40565860343e-05
    z: 0.708237640295
    w: 0.705974108464
---
header: 
  seq: 47493
  stamp: 
    secs: 2446
    nsecs: 847966332
  frame_id: "map"
pose: 
  position: 
    x: 45.8859786987
    y: -269.637969971
    z: 0.25646686554
  orientation: 
    x: 4.50945770946e-05
    y: -5.54840437858e-05
    z: 0.708203561437
    w: 0.706008293475
---
header: 
  seq: 47494
  stamp: 
    secs: 2446
    nsecs: 897966332
  frame_id: "map"
pose: 
  position: 
    x: 45.885307312
    y: -269.384063721
    z: 0.256402671337
  orientation: 
    x: 3.37528598858e-05
    y: -4.45704959039e-05
    z: 0.708050308107
    w: 0.706161991376
---
header: 
  seq: 47495
  stamp: 
    secs: 2446
    nsecs: 947966333
  frame_id: "map"
pose: 
  position: 
    x: 45.8849830627
    y: -269.130065918
    z: 0.256352186203
  orientation: 
    x: 2.52270203772e-05
    y: -3.45515079014e-05
    z: 0.708184948412
    w: 0.706026966207
---
header: 
  seq: 47496
  stamp: 
    secs: 2446
    nsecs: 997966334
  frame_id: "map"
pose: 
  position: 
    x: 45.8842277527
    y: -268.879211426
    z: 0.256352871656
  orientation: 
    x: -1.26194487149e-05
    y: 4.31393410034e-06
    z: 0.707928810769
    w: 0.706283794735
---
header: 
  seq: 47497
  stamp: 
    secs: 2447
    nsecs:  47966335
  frame_id: "map"
pose: 
  position: 
    x: 45.8837394714
    y: -268.626739502
    z: 0.256180793047
  orientation: 
    x: -2.32754183876e-06
    y: -5.20184468297e-06
    z: 0.707887287623
    w: 0.706325412249
---
header: 
  seq: 47498
  stamp: 
    secs: 2447
    nsecs:  97966335
  frame_id: "map"
pose: 
  position: 
    x: 45.88331604
    y: -268.371917725
    z: 0.256213605404
  orientation: 
    x: 2.44228039516e-05
    y: -3.18936083513e-05
    z: 0.707881784804
    w: 0.706330926074
---
header: 
  seq: 47499
  stamp: 
    secs: 2447
    nsecs: 147966336
  frame_id: "map"
pose: 
  position: 
    x: 45.8827857971
    y: -268.116210938
    z: 0.256232172251
  orientation: 
    x: 3.57238054402e-05
    y: -4.31821424654e-05
    z: 0.707771591738
    w: 0.706441342779
---
header: 
  seq: 47500
  stamp: 
    secs: 2447
    nsecs: 197966337
  frame_id: "map"
pose: 
  position: 
    x: 45.8825531006
    y: -267.859313965
    z: 0.256232917309
  orientation: 
    x: 4.62341614736e-05
    y: -5.29027351741e-05
    z: 0.707896126577
    w: 0.706316550168
---
header: 
  seq: 47501
  stamp: 
    secs: 2447
    nsecs: 247966338
  frame_id: "map"
pose: 
  position: 
    x: 45.881942749
    y: -267.604156494
    z: 0.256261736155
  orientation: 
    x: 2.42192407533e-05
    y: -3.0576899636e-05
    z: 0.707687443233
    w: 0.706525640843
---
header: 
  seq: 47502
  stamp: 
    secs: 2447
    nsecs: 297966338
  frame_id: "map"
pose: 
  position: 
    x: 45.8818206787
    y: -267.348327637
    z: 0.256263583899
  orientation: 
    x: 1.9134327826e-05
    y: -2.85012287583e-05
    z: 0.707830806027
    w: 0.706382013404
---
header: 
  seq: 47503
  stamp: 
    secs: 2447
    nsecs: 347966339
  frame_id: "map"
pose: 
  position: 
    x: 45.8813171387
    y: -267.093719482
    z: 0.256278604269
  orientation: 
    x: 2.51116118212e-06
    y: -1.26690880109e-05
    z: 0.707620314808
    w: 0.706592874224
---
header: 
  seq: 47504
  stamp: 
    secs: 2447
    nsecs: 397966340
  frame_id: "map"
pose: 
  position: 
    x: 45.8812446594
    y: -266.837738037
    z: 0.256263256073
  orientation: 
    x: 1.18556690508e-05
    y: -2.16177599085e-05
    z: 0.707745253097
    w: 0.706467731825
---
header: 
  seq: 47505
  stamp: 
    secs: 2447
    nsecs: 447966341
  frame_id: "map"
pose: 
  position: 
    x: 45.8808135986
    y: -266.582275391
    z: 0.256264001131
  orientation: 
    x: 7.88535936168e-06
    y: -1.76617385213e-05
    z: 0.707548051008
    w: 0.706665235554
---
header: 
  seq: 47506
  stamp: 
    secs: 2447
    nsecs: 497966341
  frame_id: "map"
pose: 
  position: 
    x: 45.8807792664
    y: -266.324707031
    z: 0.256238698959
  orientation: 
    x: 2.68040314496e-05
    y: -3.61706727666e-05
    z: 0.707657383903
    w: 0.706555747964
---
header: 
  seq: 47507
  stamp: 
    secs: 2447
    nsecs: 547966342
  frame_id: "map"
pose: 
  position: 
    x: 45.8804206848
    y: -266.067108154
    z: 0.256234079599
  orientation: 
    x: 2.91756354339e-05
    y: -3.81797105989e-05
    z: 0.707474085162
    w: 0.706739284684
---
header: 
  seq: 47508
  stamp: 
    secs: 2447
    nsecs: 597966343
  frame_id: "map"
pose: 
  position: 
    x: 45.8803863525
    y: -265.806945801
    z: 0.256206721067
  orientation: 
    x: 5.27413040017e-05
    y: -5.79398232531e-05
    z: 0.707581123582
    w: 0.706632116035
---
header: 
  seq: 47509
  stamp: 
    secs: 2447
    nsecs: 647966344
  frame_id: "map"
pose: 
  position: 
    x: 45.8800392151
    y: -265.546203613
    z: 0.256201922894
  orientation: 
    x: 5.64360537222e-05
    y: -6.0902785025e-05
    z: 0.70742491041
    w: 0.706788503894
---
header: 
  seq: 47510
  stamp: 
    secs: 2447
    nsecs: 697966344
  frame_id: "map"
pose: 
  position: 
    x: 45.8800048828
    y: -265.282562256
    z: 0.256176322699
  orientation: 
    x: 7.73618434137e-05
    y: -8.17872859742e-05
    z: 0.707524709759
    w: 0.706688596488
---
header: 
  seq: 47511
  stamp: 
    secs: 2447
    nsecs: 747966345
  frame_id: "map"
pose: 
  position: 
    x: 45.879699707
    y: -265.018127441
    z: 0.25617441535
  orientation: 
    x: 7.85480778877e-05
    y: -8.33819770359e-05
    z: 0.707378602222
    w: 0.706834846337
---
header: 
  seq: 47512
  stamp: 
    secs: 2447
    nsecs: 797966346
  frame_id: "map"
pose: 
  position: 
    x: 45.8796958923
    y: -264.750579834
    z: 0.256153434515
  orientation: 
    x: 9.60587710859e-05
    y: -0.000100853788753
    z: 0.707469938225
    w: 0.706743423817
---
header: 
  seq: 47513
  stamp: 
    secs: 2447
    nsecs: 847966347
  frame_id: "map"
pose: 
  position: 
    x: 45.879447937
    y: -264.482147217
    z: 0.256156295538
  orientation: 
    x: 9.21483591975e-05
    y: -9.96220914469e-05
    z: 0.707323678525
    w: 0.706889804271
---
header: 
  seq: 47514
  stamp: 
    secs: 2447
    nsecs: 897966347
  frame_id: "map"
pose: 
  position: 
    x: 45.8795089722
    y: -264.210754395
    z: 0.256141096354
  orientation: 
    x: 0.000104747175987
    y: -0.000112565264542
    z: 0.707403116204
    w: 0.706810305203
---
header: 
  seq: 47515
  stamp: 
    secs: 2447
    nsecs: 947966348
  frame_id: "map"
pose: 
  position: 
    x: 45.8792953491
    y: -263.93850708
    z: 0.256149470806
  orientation: 
    x: 9.88987274464e-05
    y: -0.00010450318729
    z: 0.707263009675
    w: 0.706950503532
---
header: 
  seq: 47516
  stamp: 
    secs: 2447
    nsecs: 997966349
  frame_id: "map"
pose: 
  position: 
    x: 45.879360199
    y: -263.663543701
    z: 0.256139874458
  orientation: 
    x: 0.000107529853258
    y: -0.000111972492907
    z: 0.707354455883
    w: 0.70685900266
---
header: 
  seq: 47517
  stamp: 
    secs: 2448
    nsecs:  47966350
  frame_id: "map"
pose: 
  position: 
    x: 45.8791656494
    y: -263.387939453
    z: 0.256153017282
  orientation: 
    x: 9.63176049699e-05
    y: -0.000101183263661
    z: 0.707215987586
    w: 0.706997544117
---
header: 
  seq: 47518
  stamp: 
    secs: 2448
    nsecs:  97966350
  frame_id: "map"
pose: 
  position: 
    x: 45.8792915344
    y: -263.109893799
    z: 0.256148070097
  orientation: 
    x: 9.97091116574e-05
    y: -0.000106053584929
    z: 0.707306734333
    w: 0.706906756494
---
header: 
  seq: 47519
  stamp: 
    secs: 2448
    nsecs: 147966351
  frame_id: "map"
pose: 
  position: 
    x: 45.8791503906
    y: -262.831604004
    z: 0.256165236235
  orientation: 
    x: 8.49367810516e-05
    y: -9.20804706948e-05
    z: 0.707155688041
    w: 0.707057859852
---
header: 
  seq: 47520
  stamp: 
    secs: 2448
    nsecs: 197966352
  frame_id: "map"
pose: 
  position: 
    x: 45.8793296814
    y: -262.551269531
    z: 0.256163924932
  orientation: 
    x: 8.6045056973e-05
    y: -9.31647745357e-05
    z: 0.707249643801
    w: 0.706963878328
---
header: 
  seq: 47521
  stamp: 
    secs: 2448
    nsecs: 247966353
  frame_id: "map"
pose: 
  position: 
    x: 45.8792381287
    y: -262.270996094
    z: 0.256183117628
  orientation: 
    x: 6.97362725871e-05
    y: -7.72717785696e-05
    z: 0.7070926062
    w: 0.707120948229
---
header: 
  seq: 47522
  stamp: 
    secs: 2448
    nsecs: 297966353
  frame_id: "map"
pose: 
  position: 
    x: 45.8794288635
    y: -261.989044189
    z: 0.256182998419
  orientation: 
    x: 7.23228139612e-05
    y: -7.49386296092e-05
    z: 0.707205588042
    w: 0.707007952852
---
header: 
  seq: 47523
  stamp: 
    secs: 2448
    nsecs: 347966354
  frame_id: "map"
pose: 
  position: 
    x: 45.8792877197
    y: -261.707397461
    z: 0.256202399731
  orientation: 
    x: 5.70463332737e-05
    y: -5.81830793377e-05
    z: 0.707064689378
    w: 0.707148865795
---
header: 
  seq: 47524
  stamp: 
    secs: 2448
    nsecs: 397966355
  frame_id: "map"
pose: 
  position: 
    x: 45.8794670105
    y: -261.424285889
    z: 0.256201326847
  orientation: 
    x: 5.78152839488e-05
    y: -5.89316076726e-05
    z: 0.707188925908
    w: 0.707024622101
---
header: 
  seq: 47525
  stamp: 
    secs: 2448
    nsecs: 447966356
  frame_id: "map"
pose: 
  position: 
    x: 45.8793334961
    y: -261.141601562
    z: 0.256217807531
  orientation: 
    x: 4.38343854603e-05
    y: -4.5348214546e-05
    z: 0.707048729582
    w: 0.707164825213
---
header: 
  seq: 47526
  stamp: 
    secs: 2448
    nsecs: 497966356
  frame_id: "map"
pose: 
  position: 
    x: 45.8794975281
    y: -260.857452393
    z: 0.256213098764
  orientation: 
    x: 4.89391893175e-05
    y: -4.81670649778e-05
    z: 0.707179841574
    w: 0.707033709915
---
header: 
  seq: 47527
  stamp: 
    secs: 2448
    nsecs: 547966357
  frame_id: "map"
pose: 
  position: 
    x: 45.8793258667
    y: -260.573822021
    z: 0.256227105856
  orientation: 
    x: 3.76429504362e-05
    y: -3.6198441094e-05
    z: 0.707050660483
    w: 0.707162895508
---
