header: 
  seq: 4604
  stamp: 
    secs: 8338
    nsecs: 348054122
  frame_id: "/map"
pose: 
  position: 
    x: 102.875724792
    y: -187.602630615
    z: 0.256882429123
  orientation: 
    x: 1.79658478821e-05
    y: 0.000113769227301
    z: 0.999999955594
    w: 0.000274854987078
---
header: 
  seq: 4605
  stamp: 
    secs: 8338
    nsecs: 398054123
  frame_id: "/map"
pose: 
  position: 
    x: 102.604316711
    y: -187.605895996
    z: 0.257363080978
  orientation: 
    x: -1.24812885414e-05
    y: -6.17050690206e-05
    z: -0.999999989562
    w: 0.000130049451339
---
header: 
  seq: 4606
  stamp: 
    secs: 8338
    nsecs: 448054123
  frame_id: "/map"
pose: 
  position: 
    x: 102.354850769
    y: -187.593276978
    z: 0.257425546646
  orientation: 
    x: 3.0339288028e-05
    y: 7.5064347281e-05
    z: 0.99999997576
    w: 0.000204753574106
---
header: 
  seq: 4607
  stamp: 
    secs: 8338
    nsecs: 498054124
  frame_id: "/map"
pose: 
  position: 
    x: 102.080001831
    y: -187.584732056
    z: 0.257037639618
  orientation: 
    x: -2.10575975945e-05
    y: -3.70296608873e-05
    z: -0.999999998509
    w: 3.41555180834e-05
---
header: 
  seq: 4608
  stamp: 
    secs: 8338
    nsecs: 548054125
  frame_id: "/map"
pose: 
  position: 
    x: 101.788948059
    y: -187.589736938
    z: 0.257549285889
  orientation: 
    x: 3.20096470832e-05
    y: 5.83764880862e-05
    z: 0.999999969262
    w: 0.000238839873709
---
header: 
  seq: 4609
  stamp: 
    secs: 8338
    nsecs: 598054126
  frame_id: "/map"
pose: 
  position: 
    x: 101.523101807
    y: -187.604690552
    z: 0.256760120392
  orientation: 
    x: -3.02412075107e-05
    y: -7.35060502051e-05
    z: -0.999999993771
    w: 7.83574827787e-05
---
header: 
  seq: 4610
  stamp: 
    secs: 8338
    nsecs: 648054126
  frame_id: "/map"
pose: 
  position: 
    x: 101.267791748
    y: -187.599273682
    z: 0.256484508514
  orientation: 
    x: 1.91440489852e-05
    y: 2.63051329351e-05
    z: 0.999999981873
    w: 0.000187605640952
---
header: 
  seq: 4611
  stamp: 
    secs: 8338
    nsecs: 698054127
  frame_id: "/map"
pose: 
  position: 
    x: 100.986877441
    y: -187.598999023
    z: 0.256648302078
  orientation: 
    x: -9.62548858044e-06
    y: -5.56247375841e-05
    z: -0.999999970051
    w: 0.000238140759397
---
header: 
  seq: 4612
  stamp: 
    secs: 8338
    nsecs: 748054128
  frame_id: "/map"
pose: 
  position: 
    x: 100.711540222
    y: -187.594772339
    z: 0.257043600082
  orientation: 
    x: 2.40206460726e-05
    y: 5.96865520836e-05
    z: 0.999999962365
    w: 0.000266703045379
---
header: 
  seq: 4613
  stamp: 
    secs: 8338
    nsecs: 798054129
  frame_id: "/map"
pose: 
  position: 
    x: 100.445022583
    y: -187.584411621
    z: 0.256567716599
  orientation: 
    x: -2.17719416948e-05
    y: -2.09838202148e-06
    z: -0.999999985526
    w: 0.000168730305846
---
header: 
  seq: 4614
  stamp: 
    secs: 8338
    nsecs: 848054129
  frame_id: "/map"
pose: 
  position: 
    x: 100.171585083
    y: -187.5990448
    z: 0.256558418274
  orientation: 
    x: 3.34529301866e-05
    y: 7.59083459151e-06
    z: 0.999999987555
    w: 0.00015399390812
---
header: 
  seq: 4615
  stamp: 
    secs: 8338
    nsecs: 898054130
  frame_id: "/map"
pose: 
  position: 
    x: 99.8759231567
    y: -187.598007202
    z: 0.256618022919
  orientation: 
    x: -6.20646279611e-05
    y: -3.89372443917e-05
    z: -0.999999997286
    w: 7.7564419047e-06
---
header: 
  seq: 4616
  stamp: 
    secs: 8338
    nsecs: 948054131
  frame_id: "/map"
pose: 
  position: 
    x: 99.6104507446
    y: -187.597503662
    z: 0.256564378738
  orientation: 
    x: 4.95391559551e-05
    y: 4.41921297946e-05
    z: 0.999999980578
    w: 0.000185572944223
---
header: 
  seq: 4617
  stamp: 
    secs: 8338
    nsecs: 998054132
  frame_id: "/map"
pose: 
  position: 
    x: 99.3494262695
    y: -187.598388672
    z: 0.25554561615
  orientation: 
    x: -3.61980688244e-05
    y: -1.44944371264e-05
    z: -0.999999988174
    w: 0.000148768570304
---
header: 
  seq: 4618
  stamp: 
    secs: 8339
    nsecs:  48054132
  frame_id: "/map"
pose: 
  position: 
    x: 99.0664215088
    y: -187.613235474
    z: 0.256010055542
  orientation: 
    x: 7.51716814435e-05
    y: 8.34078935977e-05
    z: 0.999999991386
    w: 6.79670058779e-05
---
header: 
  seq: 4619
  stamp: 
    secs: 8339
    nsecs:  98054133
  frame_id: "/map"
pose: 
  position: 
    x: 98.7856445312
    y: -187.607345581
    z: 0.256021499634
  orientation: 
    x: -4.26418706079e-05
    y: -6.89731072825e-05
    z: -0.999999988833
    w: 0.000125532306571
---
header: 
  seq: 4620
  stamp: 
    secs: 8339
    nsecs: 148054134
  frame_id: "/map"
pose: 
  position: 
    x: 98.5260009766
    y: -187.602508545
    z: 0.256912708282
  orientation: 
    x: 8.08957812633e-05
    y: 7.29163735387e-05
    z: 0.999999992843
    w: 4.95370020878e-05
---
header: 
  seq: 4621
  stamp: 
    secs: 8339
    nsecs: 198054135
  frame_id: "/map"
pose: 
  position: 
    x: 98.2578048706
    y: -187.612625122
    z: 0.257921457291
  orientation: 
    x: -7.31607929719e-05
    y: -7.76713085247e-05
    z: -0.999999986008
    w: 0.000128834781367
---
header: 
  seq: 4622
  stamp: 
    secs: 8339
    nsecs: 248054135
  frame_id: "/map"
pose: 
  position: 
    x: 97.9499359131
    y: -187.603561401
    z: 0.257796764374
  orientation: 
    x: 5.2760235127e-05
    y: 5.88508565508e-05
    z: 0.999999992065
    w: 9.8096439808e-05
---
header: 
  seq: 4623
  stamp: 
    secs: 8339
    nsecs: 298054136
  frame_id: "/map"
pose: 
  position: 
    x: 97.6932449341
    y: -187.603912354
    z: 0.25648522377
  orientation: 
    x: -2.76134221933e-05
    y: -5.79479023216e-06
    z: -0.99999999463
    w: 9.97229637307e-05
---
header: 
  seq: 4624
  stamp: 
    secs: 8339
    nsecs: 348054137
  frame_id: "/map"
pose: 
  position: 
    x: 97.4152832031
    y: -187.608108521
    z: 0.256684303284
  orientation: 
    x: 2.51083487862e-05
    y: 1.41441471162e-05
    z: 0.999999996561
    w: 7.77634128788e-05
---
header: 
  seq: 4625
  stamp: 
    secs: 8339
    nsecs: 398054138
  frame_id: "/map"
pose: 
  position: 
    x: 97.1480255127
    y: -187.596054077
    z: 0.256683349609
  orientation: 
    x: -2.52298944443e-05
    y: -7.72035014464e-05
    z: -0.999999996573
    w: 1.60189390021e-05
---
header: 
  seq: 4626
  stamp: 
    secs: 8339
    nsecs: 448054138
  frame_id: "/map"
pose: 
  position: 
    x: 96.8722457886
    y: -187.592315674
    z: 0.25683093071
  orientation: 
    x: 2.28116156951e-05
    y: 6.98236728022e-05
    z: 0.999999886564
    w: 0.000470612828901
---
header: 
  seq: 4627
  stamp: 
    secs: 8339
    nsecs: 498054139
  frame_id: "/map"
pose: 
  position: 
    x: 96.6016769409
    y: -187.604553223
    z: 0.257334947586
  orientation: 
    x: 4.72820075629e-05
    y: 3.72692674259e-05
    z: 0.999999998138
    w: 9.98104537526e-06
---
header: 
  seq: 4628
  stamp: 
    secs: 8339
    nsecs: 548054140
  frame_id: "/map"
pose: 
  position: 
    x: 96.3298721313
    y: -187.593109131
    z: 0.257328748703
  orientation: 
    x: 6.46863422454e-05
    y: 2.35662859263e-06
    z: 0.999999966722
    w: 0.000249731847099
---
header: 
  seq: 4629
  stamp: 
    secs: 8339
    nsecs: 598054141
  frame_id: "/map"
pose: 
  position: 
    x: 96.0450210571
    y: -187.587524414
    z: 0.25689291954
  orientation: 
    x: 5.34816225306e-05
    y: -1.34063264161e-06
    z: 0.999999962416
    w: 0.000268897027804
---
header: 
  seq: 4630
  stamp: 
    secs: 8339
    nsecs: 648054141
  frame_id: "/map"
pose: 
  position: 
    x: 95.7785949707
    y: -187.591781616
    z: 0.255945682526
  orientation: 
    x: 5.83400434826e-05
    y: -2.41763123919e-06
    z: 0.999999866572
    w: 0.000513271290335
---
header: 
  seq: 4631
  stamp: 
    secs: 8339
    nsecs: 698054142
  frame_id: "/map"
pose: 
  position: 
    x: 95.4971542358
    y: -187.601638794
    z: 0.256503582001
  orientation: 
    x: 2.53902679775e-05
    y: 1.49510155327e-05
    z: 0.999999987416
    w: 0.000155882417345
---
header: 
  seq: 4632
  stamp: 
    secs: 8339
    nsecs: 748054143
  frame_id: "/map"
pose: 
  position: 
    x: 95.2306213379
    y: -187.600769043
    z: 0.257284402847
  orientation: 
    x: 3.66406376349e-05
    y: 6.36325440098e-05
    z: 0.999999869924
    w: 0.000504738493042
---
header: 
  seq: 4633
  stamp: 
    secs: 8339
    nsecs: 798054144
  frame_id: "/map"
pose: 
  position: 
    x: 94.9387512207
    y: -187.59916687
    z: 0.256065368652
  orientation: 
    x: 4.21540179306e-05
    y: 8.19387118573e-06
    z: 0.999999957598
    w: 0.000288026746248
---
header: 
  seq: 4634
  stamp: 
    secs: 8339
    nsecs: 848054144
  frame_id: "/map"
pose: 
  position: 
    x: 94.6585235596
    y: -187.587554932
    z: 0.255619525909
  orientation: 
    x: 5.20511966325e-05
    y: -8.51272657289e-07
    z: 0.999999865066
    w: 0.000516873372846
---
header: 
  seq: 4635
  stamp: 
    secs: 8339
    nsecs: 898054145
  frame_id: "/map"
pose: 
  position: 
    x: 94.3977737427
    y: -187.592956543
    z: 0.255823135376
  orientation: 
    x: 4.92559634095e-05
    y: -5.28198538214e-06
    z: 0.999999937872
    w: 0.000349000811228
---
header: 
  seq: 4636
  stamp: 
    secs: 8339
    nsecs: 948054146
  frame_id: "/map"
pose: 
  position: 
    x: 94.1195907593
    y: -187.593811035
    z: 0.256140708923
  orientation: 
    x: 5.68612994746e-05
    y: 1.36395871437e-05
    z: 0.999999834265
    w: 0.000572757692929
---
header: 
  seq: 4637
  stamp: 
    secs: 8339
    nsecs: 998054146
  frame_id: "/map"
pose: 
  position: 
    x: 93.8214797974
    y: -187.596374512
    z: 0.256672143936
  orientation: 
    x: 7.64755602456e-05
    y: 2.78871964621e-05
    z: 0.999999886315
    w: 0.000469833408024
---
header: 
  seq: 4638
  stamp: 
    secs: 8340
    nsecs:  48054147
  frame_id: "/map"
pose: 
  position: 
    x: 93.5565414429
    y: -187.602645874
    z: 0.256188392639
  orientation: 
    x: 3.66667001417e-05
    y: 1.16578568323e-05
    z: 0.999999864208
    w: 0.000519715238548
---
header: 
  seq: 4639
  stamp: 
    secs: 8340
    nsecs:  98054148
  frame_id: "/map"
pose: 
  position: 
    x: 93.2919616699
    y: -187.589904785
    z: 0.255784511566
  orientation: 
    x: 1.90300069394e-05
    y: -6.32825101458e-07
    z: 0.999999933458
    w: 0.000364309086563
---
header: 
  seq: 4640
  stamp: 
    secs: 8340
    nsecs: 148054149
  frame_id: "/map"
pose: 
  position: 
    x: 93.013458252
    y: -187.599075317
    z: 0.257127523422
  orientation: 
    x: 2.29363516163e-05
    y: 4.84332309021e-05
    z: 0.999999864257
    w: 0.000518279331008
---
header: 
  seq: 4641
  stamp: 
    secs: 8340
    nsecs: 198054149
  frame_id: "/map"
pose: 
  position: 
    x: 92.7169036865
    y: -187.594360352
    z: 0.255926609039
  orientation: 
    x: 3.35723677253e-05
    y: 2.59112734376e-06
    z: 0.999999933033
    w: 0.000364416729455
---
header: 
  seq: 4642
  stamp: 
    secs: 8340
    nsecs: 248054150
  frame_id: "/map"
pose: 
  position: 
    x: 92.4536132812
    y: -187.591888428
    z: 0.257153987885
  orientation: 
    x: 3.41517333633e-05
    y: 2.98979582311e-05
    z: 0.999999825167
    w: 0.000589580706348
---
header: 
  seq: 4643
  stamp: 
    secs: 8340
    nsecs: 298054151
  frame_id: "/map"
pose: 
  position: 
    x: 92.1883926392
    y: -187.585388184
    z: 0.255492210388
  orientation: 
    x: 2.1891022223e-05
    y: -7.31480696829e-06
    z: 0.999999999264
    w: 3.06537840447e-05
---
header: 
  seq: 4644
  stamp: 
    secs: 8340
    nsecs: 348054152
  frame_id: "/map"
pose: 
  position: 
    x: 91.8848419189
    y: -187.592910767
    z: 0.256172418594
  orientation: 
    x: 1.72472591056e-05
    y: 1.17346833987e-05
    z: 0.999999913355
    w: 0.000415758475586
---
header: 
  seq: 4645
  stamp: 
    secs: 8340
    nsecs: 398054152
  frame_id: "/map"
pose: 
  position: 
    x: 91.6045608521
    y: -187.590896606
    z: 0.254525661469
  orientation: 
    x: 2.61917608199e-05
    y: -2.20862547828e-05
    z: 0.999999908323
    w: 0.000426825342642
---
header: 
  seq: 4646
  stamp: 
    secs: 8340
    nsecs: 448054153
  frame_id: "/map"
pose: 
  position: 
    x: 91.3391876221
    y: -187.589401245
    z: 0.255685806274
  orientation: 
    x: 2.9217190993e-05
    y: 2.32788861374e-05
    z: 0.999999869225
    w: 0.000510053510519
---
header: 
  seq: 4647
  stamp: 
    secs: 8340
    nsecs: 498054154
  frame_id: "/map"
pose: 
  position: 
    x: 91.0725631714
    y: -187.601226807
    z: 0.256176233292
  orientation: 
    x: 3.6453714302e-06
    y: 1.60509970704e-05
    z: 0.99999992024
    w: 0.000399059522958
---
header: 
  seq: 4648
  stamp: 
    secs: 8340
    nsecs: 548054155
  frame_id: "/map"
pose: 
  position: 
    x: 90.7727279663
    y: -187.591110229
    z: 0.256218910217
  orientation: 
    x: 2.58161472106e-05
    y: 1.5825090053e-05
    z: 0.999999853246
    w: 0.000540916483944
---
header: 
  seq: 4649
  stamp: 
    secs: 8340
    nsecs: 598054155
  frame_id: "/map"
pose: 
  position: 
    x: 90.4954071045
    y: -187.591018677
    z: 0.256225585938
  orientation: 
    x: 2.51055393527e-05
    y: 1.04560939722e-05
    z: 0.999999929732
    w: 0.000373893274916
---
header: 
  seq: 4650
  stamp: 
    secs: 8340
    nsecs: 648054156
  frame_id: "/map"
pose: 
  position: 
    x: 90.2259674072
    y: -187.592849731
    z: 0.254868030548
  orientation: 
    x: 3.41976181627e-05
    y: -6.79788020013e-05
    z: 0.999999910714
    w: 0.0004156689477
---
header: 
  seq: 4651
  stamp: 
    secs: 8340
    nsecs: 698054157
  frame_id: "/map"
pose: 
  position: 
    x: 89.9299163818
    y: -187.595352173
    z: 0.255673885345
  orientation: 
    x: 4.15604538965e-05
    y: -1.88626390271e-05
    z: 0.999999967246
    w: 0.000251844732655
---
header: 
  seq: 4652
  stamp: 
    secs: 8340
    nsecs: 748054158
  frame_id: "/map"
pose: 
  position: 
    x: 89.6552734375
    y: -187.594741821
    z: 0.255172252655
  orientation: 
    x: 4.18282665096e-05
    y: -3.39106804696e-05
    z: 0.999999905612
    w: 0.000431134856593
---
header: 
  seq: 4653
  stamp: 
    secs: 8340
    nsecs: 798054158
  frame_id: "/map"
pose: 
  position: 
    x: 89.373298645
    y: -187.604507446
    z: 0.256466150284
  orientation: 
    x: 3.71801627414e-05
    y: 4.15762265098e-05
    z: 0.999999991014
    w: 0.000121908932863
---
header: 
  seq: 4654
  stamp: 
    secs: 8340
    nsecs: 848054159
  frame_id: "/map"
pose: 
  position: 
    x: 89.1058959961
    y: -187.584686279
    z: 0.254899024963
  orientation: 
    x: 3.64355033383e-05
    y: -3.0098130536e-06
    z: 0.999999924126
    w: 0.000387829981814
---
header: 
  seq: 4655
  stamp: 
    secs: 8340
    nsecs: 898054160
  frame_id: "/map"
pose: 
  position: 
    x: 88.8170547485
    y: -187.591674805
    z: 0.255486249924
  orientation: 
    x: 8.11449044502e-06
    y: -2.13413497697e-05
    z: 0.999999984456
    w: 0.000174836140173
---
header: 
  seq: 4656
  stamp: 
    secs: 8340
    nsecs: 948054161
  frame_id: "/map"
pose: 
  position: 
    x: 88.547454834
    y: -187.596878052
    z: 0.256138324738
  orientation: 
    x: 2.67183133527e-05
    y: -1.4990297226e-05
    z: 0.999999930823
    w: 0.000370696766765
---
header: 
  seq: 4657
  stamp: 
    secs: 8340
    nsecs: 998054161
  frame_id: "/map"
pose: 
  position: 
    x: 88.2790908813
    y: -187.588699341
    z: 0.256117582321
  orientation: 
    x: -2.30590455143e-05
    y: -3.22188611796e-06
    z: -0.999999999647
    w: 1.27990312395e-05
---
header: 
  seq: 4658
  stamp: 
    secs: 8341
    nsecs:  48054162
  frame_id: "/map"
pose: 
  position: 
    x: 87.9777755737
    y: -187.57913208
    z: 0.25421500206
  orientation: 
    x: 6.91130074013e-05
    y: -4.53198714702e-05
    z: 0.999999939416
    w: 0.000338138236182
---
header: 
  seq: 4659
  stamp: 
    secs: 8341
    nsecs:  98054163
  frame_id: "/map"
pose: 
  position: 
    x: 87.6985855103
    y: -187.586013794
    z: 0.254053354263
  orientation: 
    x: 0.000107329924265
    y: -7.25986636599e-05
    z: 0.999999979697
    w: 0.000154324524348
---
header: 
  seq: 4660
  stamp: 
    secs: 8341
    nsecs: 148054164
  frame_id: "/map"
pose: 
  position: 
    x: 87.4206237793
    y: -187.601074219
    z: 0.253881216049
  orientation: 
    x: 2.61562061826e-05
    y: -1.55734404031e-05
    z: 0.999999914884
    w: 0.000411466330088
---
header: 
  seq: 4661
  stamp: 
    secs: 8341
    nsecs: 198054164
  frame_id: "/map"
pose: 
  position: 
    x: 87.1601867676
    y: -187.607284546
    z: 0.254721641541
  orientation: 
    x: 1.6928104944e-06
    y: -2.26483979726e-05
    z: 0.999999980988
    w: 0.000193671347843
---
header: 
  seq: 4662
  stamp: 
    secs: 8341
    nsecs: 248054165
  frame_id: "/map"
pose: 
  position: 
    x: 86.8505325317
    y: -187.599273682
    z: 0.25612449646
  orientation: 
    x: 2.61469270646e-05
    y: 2.75246921752e-06
    z: 0.999999863302
    w: 0.000522212177588
---
header: 
  seq: 4663
  stamp: 
    secs: 8341
    nsecs: 298054166
  frame_id: "/map"
pose: 
  position: 
    x: 86.5936889648
    y: -187.590484619
    z: 0.256232738495
  orientation: 
    x: 3.22576604287e-05
    y: 1.84413327775e-05
    z: 0.999999971526
    w: 0.000235727357778
---
header: 
  seq: 4664
  stamp: 
    secs: 8341
    nsecs: 348054167
  frame_id: "/map"
pose: 
  position: 
    x: 86.3140258789
    y: -187.590133667
    z: 0.256207227707
  orientation: 
    x: 4.07182652296e-05
    y: 2.67899343245e-05
    z: 0.999999958535
    w: 0.000283822331802
---
header: 
  seq: 4665
  stamp: 
    secs: 8341
    nsecs: 398054167
  frame_id: "/map"
pose: 
  position: 
    x: 86.0279693604
    y: -187.600341797
    z: 0.25544667244
  orientation: 
    x: 6.98991408605e-06
    y: -8.38813039495e-06
    z: 0.999999999395
    w: 3.30364240708e-05
---
header: 
  seq: 4666
  stamp: 
    secs: 8341
    nsecs: 448054168
  frame_id: "/map"
pose: 
  position: 
    x: 85.7329406738
    y: -187.596084595
    z: 0.254983663559
  orientation: 
    x: 3.56924164347e-05
    y: 3.46586788965e-06
    z: 0.999999914754
    w: 0.000411347637126
---
header: 
  seq: 4667
  stamp: 
    secs: 8341
    nsecs: 498054169
  frame_id: "/map"
pose: 
  position: 
    x: 85.4741897583
    y: -187.595291138
    z: 0.255755901337
  orientation: 
    x: -1.12807661058e-05
    y: 1.89982306091e-05
    z: -0.999999999528
    w: 2.13271344749e-05
---
header: 
  seq: 4668
  stamp: 
    secs: 8341
    nsecs: 548054170
  frame_id: "/map"
pose: 
  position: 
    x: 85.1946105957
    y: -187.607971191
    z: 0.255790472031
  orientation: 
    x: 3.26694147896e-05
    y: 6.73087048301e-06
    z: 0.999999928744
    w: 0.000376030032474
---
header: 
  seq: 4669
  stamp: 
    secs: 8341
    nsecs: 598054170
  frame_id: "/map"
pose: 
  position: 
    x: 84.9127578735
    y: -187.598419189
    z: 0.256659507751
  orientation: 
    x: 7.70187794886e-06
    y: 2.24878759508e-05
    z: 0.999999990734
    w: 0.00013404209167
---
header: 
  seq: 4670
  stamp: 
    secs: 8341
    nsecs: 648054171
  frame_id: "/map"
pose: 
  position: 
    x: 84.6241836548
    y: -187.606262207
    z: 0.255462884903
  orientation: 
    x: 2.68777737075e-06
    y: 1.93888365748e-05
    z: 0.999999858016
    w: 0.000532527376649
---
header: 
  seq: 4671
  stamp: 
    secs: 8341
    nsecs: 698054172
  frame_id: "/map"
pose: 
  position: 
    x: 84.3601379395
    y: -187.599029541
    z: 0.256728887558
  orientation: 
    x: 1.98020876066e-06
    y: 3.59576409284e-05
    z: 0.999999996661
    w: 7.33587595381e-05
---
header: 
  seq: 4672
  stamp: 
    secs: 8341
    nsecs: 748054173
  frame_id: "/map"
pose: 
  position: 
    x: 84.0693588257
    y: -187.602432251
    z: 0.256541252136
  orientation: 
    x: 3.83352222185e-05
    y: 1.7255988698e-05
    z: 0.999999929028
    w: 0.000374402105026
---
header: 
  seq: 4673
  stamp: 
    secs: 8341
    nsecs: 798054173
  frame_id: "/map"
pose: 
  position: 
    x: 83.7808914185
    y: -187.593414307
    z: 0.256202936172
  orientation: 
    x: 4.97782020188e-05
    y: 4.16885800424e-05
    z: 0.999999981407
    w: 0.000181575967663
---
header: 
  seq: 4674
  stamp: 
    secs: 8341
    nsecs: 848054174
  frame_id: "/map"
pose: 
  position: 
    x: 83.5152587891
    y: -187.593795776
    z: 0.254997968674
  orientation: 
    x: 3.98876409084e-05
    y: 7.84325141347e-06
    z: 0.999999883946
    w: 0.000480057449752
---
header: 
  seq: 4675
  stamp: 
    secs: 8341
    nsecs: 898054175
  frame_id: "/map"
pose: 
  position: 
    x: 83.2525558472
    y: -187.594818115
    z: 0.255331277847
  orientation: 
    x: 2.34108479424e-06
    y: -2.48391872923e-05
    z: 0.999999999387
    w: 2.45798145634e-05
---
header: 
  seq: 4676
  stamp: 
    secs: 8341
    nsecs: 948054176
  frame_id: "/map"
pose: 
  position: 
    x: 82.9726486206
    y: -187.594436646
    z: 0.255656480789
  orientation: 
    x: 1.09493993998e-05
    y: 1.72228992938e-05
    z: 0.999999861189
    w: 0.000526503825739
---
header: 
  seq: 4677
  stamp: 
    secs: 8341
    nsecs: 998054176
  frame_id: "/map"
pose: 
  position: 
    x: 82.6863708496
    y: -187.587692261
    z: 0.254652023315
  orientation: 
    x: 3.96771364119e-05
    y: -6.90520225996e-05
    z: 0.999999935668
    w: 0.000349746312678
---
header: 
  seq: 4678
  stamp: 
    secs: 8342
    nsecs:  48054177
  frame_id: "/map"
pose: 
  position: 
    x: 82.4110717773
    y: -187.591461182
    z: 0.255054473877
  orientation: 
    x: 3.22581761482e-05
    y: -4.35867759377e-05
    z: 0.999999867845
    w: 0.000511243556289
---
header: 
  seq: 4679
  stamp: 
    secs: 8342
    nsecs:  98054178
  frame_id: "/map"
pose: 
  position: 
    x: 82.1381149292
    y: -187.604049683
    z: 0.256648302078
  orientation: 
    x: 9.75603826212e-07
    y: 2.64814231534e-05
    z: 0.999999966968
    w: 0.000255660250006
---
header: 
  seq: 4680
  stamp: 
    secs: 8342
    nsecs: 148054179
  frame_id: "/map"
pose: 
  position: 
    x: 81.8416213989
    y: -187.589187622
    z: 0.256254434586
  orientation: 
    x: 2.04669051153e-05
    y: -1.13566735752e-05
    z: 0.999999830068
    w: 0.000582508594696
---
header: 
  seq: 4681
  stamp: 
    secs: 8342
    nsecs: 198054179
  frame_id: "/map"
pose: 
  position: 
    x: 81.5724868774
    y: -187.596115112
    z: 0.254586458206
  orientation: 
    x: 7.76961741716e-06
    y: -3.13514455902e-05
    z: 0.999999972994
    w: 0.000230149196787
---
header: 
  seq: 4682
  stamp: 
    secs: 8342
    nsecs: 248054180
  frame_id: "/map"
pose: 
  position: 
    x: 81.3057861328
    y: -187.589569092
    z: 0.253346920013
  orientation: 
    x: -2.15742605884e-06
    y: -9.05351832976e-05
    z: 0.999999761741
    w: 0.000684336971362
---
header: 
  seq: 4683
  stamp: 
    secs: 8342
    nsecs: 298054181
  frame_id: "/map"
pose: 
  position: 
    x: 81.0309906006
    y: -187.600097656
    z: 0.255861282349
  orientation: 
    x: -9.94181237057e-07
    y: 3.19851865413e-05
    z: 0.999999963975
    w: 0.000266508234586
---
header: 
  seq: 4684
  stamp: 
    secs: 8342
    nsecs: 348054182
  frame_id: "/map"
pose: 
  position: 
    x: 80.7409896851
    y: -187.58807373
    z: 0.255897283554
  orientation: 
    x: 5.13793880895e-07
    y: 1.259275083e-05
    z: 0.999999856057
    w: 0.000536401779687
---
header: 
  seq: 4685
  stamp: 
    secs: 8342
    nsecs: 398054182
  frame_id: "/map"
pose: 
  position: 
    x: 80.4726867676
    y: -187.600341797
    z: 0.256398439407
  orientation: 
    x: -2.81220733802e-07
    y: -6.12342652095e-06
    z: 0.999999988957
    w: 0.000148484514686
---
header: 
  seq: 4686
  stamp: 
    secs: 8342
    nsecs: 448054183
  frame_id: "/map"
pose: 
  position: 
    x: 80.2142181396
    y: -187.590774536
    z: 0.254570484161
  orientation: 
    x: 3.2469038466e-05
    y: -8.15228536703e-06
    z: 0.999999867103
    w: 0.000514463275097
---
header: 
  seq: 4687
  stamp: 
    secs: 8342
    nsecs: 498054184
  frame_id: "/map"
pose: 
  position: 
    x: 79.9241333008
    y: -187.590301514
    z: 0.254463911057
  orientation: 
    x: 3.71965815099e-05
    y: -2.85507800169e-05
    z: 0.999999972252
    w: 0.000230863625998
---
header: 
  seq: 4688
  stamp: 
    secs: 8342
    nsecs: 548054184
  frame_id: "/map"
pose: 
  position: 
    x: 79.647819519
    y: -187.587493896
    z: 0.253653287888
  orientation: 
    x: 4.99052596776e-05
    y: -3.51419132578e-05
    z: 0.99999994566
    w: 0.000323965363372
---
header: 
  seq: 4689
  stamp: 
    secs: 8342
    nsecs: 598054185
  frame_id: "/map"
pose: 
  position: 
    x: 79.3829498291
    y: -187.597991943
    z: 0.253896474838
  orientation: 
    x: 2.48427536996e-05
    y: -5.13200184273e-05
    z: 0.999999982203
    w: 0.000179841834389
---
header: 
  seq: 4690
  stamp: 
    secs: 8342
    nsecs: 648054186
  frame_id: "/map"
pose: 
  position: 
    x: 79.1214981079
    y: -187.596054077
    z: 0.254662752151
  orientation: 
    x: 6.74339006787e-06
    y: -7.64057475691e-05
    z: 0.999999974504
    w: 0.000212386733627
---
header: 
  seq: 4691
  stamp: 
    secs: 8342
    nsecs: 698054187
  frame_id: "/map"
pose: 
  position: 
    x: 78.8253097534
    y: -187.590484619
    z: 0.254173517227
  orientation: 
    x: 2.6785816102e-05
    y: -3.34763981941e-05
    z: 0.999999996237
    w: 7.5414872457e-05
---
header: 
  seq: 4692
  stamp: 
    secs: 8342
    nsecs: 748054187
  frame_id: "/map"
pose: 
  position: 
    x: 78.5586624146
    y: -187.586990356
    z: 0.254895925522
  orientation: 
    x: 6.06405122087e-05
    y: -1.63039500766e-05
    z: 0.999999902241
    w: 0.000437691777088
---
header: 
  seq: 4693
  stamp: 
    secs: 8342
    nsecs: 798054188
  frame_id: "/map"
pose: 
  position: 
    x: 78.2835083008
    y: -187.589172363
    z: 0.255015611649
  orientation: 
    x: 6.33798920507e-05
    y: -7.35158912679e-06
    z: 0.999999988898
    w: 0.000134662321415
---
header: 
  seq: 4694
  stamp: 
    secs: 8342
    nsecs: 848054189
  frame_id: "/map"
pose: 
  position: 
    x: 78.007019043
    y: -187.587051392
    z: 0.254366397858
  orientation: 
    x: 7.11218510027e-05
    y: -2.0542437952e-05
    z: 0.999999985479
    w: 0.000153496389661
---
header: 
  seq: 4695
  stamp: 
    secs: 8342
    nsecs: 898054190
  frame_id: "/map"
pose: 
  position: 
    x: 77.7183151245
    y: -187.600112915
    z: 0.253951787949
  orientation: 
    x: 3.89974022847e-05
    y: -6.55212086284e-05
    z: 0.999999982224
    w: 0.000172449578024
---
header: 
  seq: 4696
  stamp: 
    secs: 8342
    nsecs: 948054190
  frame_id: "/map"
pose: 
  position: 
    x: 77.4572143555
    y: -187.613204956
    z: 0.254113912582
  orientation: 
    x: 3.5060940894e-05
    y: -3.86980432512e-05
    z: 0.999999962837
    w: 0.000267579794089
---
header: 
  seq: 4697
  stamp: 
    secs: 8342
    nsecs: 998054191
  frame_id: "/map"
pose: 
  position: 
    x: 77.1839523315
    y: -187.600067139
    z: 0.253566980362
  orientation: 
    x: 2.01479261335e-05
    y: -9.92308120134e-05
    z: 0.999999988193
    w: 0.000115587299888
---
header: 
  seq: 4698
  stamp: 
    secs: 8343
    nsecs:  48054192
  frame_id: "/map"
pose: 
  position: 
    x: 76.8933792114
    y: -187.606658936
    z: 0.256472349167
  orientation: 
    x: 4.05971289793e-05
    y: -2.2437135184e-05
    z: 0.999999883719
    w: 0.000480011176124
---
header: 
  seq: 4699
  stamp: 
    secs: 8343
    nsecs:  98054193
  frame_id: "/map"
pose: 
  position: 
    x: 76.6137008667
    y: -187.588409424
    z: 0.257015705109
  orientation: 
    x: 4.30782000453e-05
    y: -9.74196464416e-06
    z: 0.999999988053
    w: 0.000148133012162
---
header: 
  seq: 4700
  stamp: 
    secs: 8343
    nsecs: 148054193
  frame_id: "/map"
pose: 
  position: 
    x: 76.3561401367
    y: -187.596786499
    z: 0.255423069
  orientation: 
    x: 2.85753826953e-05
    y: -6.6583726605e-05
    z: 0.999999971028
    w: 0.000229551491775
---
header: 
  seq: 4701
  stamp: 
    secs: 8343
    nsecs: 198054194
  frame_id: "/map"
pose: 
  position: 
    x: 76.0730743408
    y: -187.601882935
    z: 0.256493330002
  orientation: 
    x: -2.78898284593e-05
    y: 1.87624572562e-05
    z: -0.999999996117
    w: 8.1464182281e-05
---
header: 
  seq: 4702
  stamp: 
    secs: 8343
    nsecs: 248054195
  frame_id: "/map"
pose: 
  position: 
    x: 75.7920303345
    y: -187.591796875
    z: 0.256164550781
  orientation: 
    x: 3.87549444164e-05
    y: -2.99950416179e-05
    z: 0.999999829632
    w: 0.000581664640531
---
header: 
  seq: 4703
  stamp: 
    secs: 8343
    nsecs: 298054196
  frame_id: "/map"
pose: 
  position: 
    x: 75.5182723999
    y: -187.604263306
    z: 0.254434108734
  orientation: 
    x: 4.03226199632e-06
    y: -4.68598644209e-05
    z: 0.999999984614
    w: 0.000168994872246
---
header: 
  seq: 4704
  stamp: 
    secs: 8343
    nsecs: 348054196
  frame_id: "/map"
pose: 
  position: 
    x: 75.2552566528
    y: -187.598510742
    z: 0.255134105682
  orientation: 
    x: 1.62713207428e-05
    y: -7.58048489167e-05
    z: 0.999999851659
    w: 0.000539138662612
---
header: 
  seq: 4705
  stamp: 
    secs: 8343
    nsecs: 398054197
  frame_id: "/map"
pose: 
  position: 
    x: 74.9694442749
    y: -187.588012695
    z: 0.255466222763
  orientation: 
    x: -3.14016983402e-06
    y: -3.48973004193e-05
    z: 0.999999962817
    w: 0.000270442290015
---
header: 
  seq: 4706
  stamp: 
    secs: 8343
    nsecs: 448054198
  frame_id: "/map"
pose: 
  position: 
    x: 74.6836929321
    y: -187.598846436
    z: 0.256309270859
  orientation: 
    x: 4.57078790388e-05
    y: -3.91336172566e-05
    z: 0.999999641354
    w: 0.000844790653815
---
header: 
  seq: 4707
  stamp: 
    secs: 8343
    nsecs: 498054199
  frame_id: "/map"
pose: 
  position: 
    x: 74.419380188
    y: -187.588775635
    z: 0.256917476654
  orientation: 
    x: 3.45116106329e-05
    y: -1.24599891763e-05
    z: 0.999999927581
    w: 0.000378802966747
---
header: 
  seq: 4708
  stamp: 
    secs: 8343
    nsecs: 548054199
  frame_id: "/map"
pose: 
  position: 
    x: 74.1479415894
    y: -187.597839355
    z: 0.257331609726
  orientation: 
    x: 3.24539567736e-05
    y: 1.30033373521e-05
    z: 0.999999657497
    w: 0.000826911455553
---
header: 
  seq: 4709
  stamp: 
    secs: 8343
    nsecs: 598054200
  frame_id: "/map"
pose: 
  position: 
    x: 73.8516616821
    y: -187.586608887
    z: 0.25420165062
  orientation: 
    x: 6.45934496443e-05
    y: -7.22615572299e-05
    z: 0.99999993194
    w: 0.000355985013444
---
header: 
  seq: 4710
  stamp: 
    secs: 8343
    nsecs: 648054201
  frame_id: "/map"
pose: 
  position: 
    x: 73.5797195435
    y: -187.59552002
    z: 0.254019975662
  orientation: 
    x: 3.61095218431e-05
    y: -7.3187896279e-05
    z: 0.999999759977
    w: 0.000688029586485
---
header: 
  seq: 4711
  stamp: 
    secs: 8343
    nsecs: 698054202
  frame_id: "/map"
pose: 
  position: 
    x: 73.3050613403
    y: -187.594589233
    z: 0.25385260582
  orientation: 
    x: 5.51018480954e-05
    y: -6.82795600516e-05
    z: 0.999999862587
    w: 0.000516843971678
---
header: 
  seq: 4712
  stamp: 
    secs: 8343
    nsecs: 748054202
  frame_id: "/map"
pose: 
  position: 
    x: 73.0334014893
    y: -187.583999634
    z: 0.254644870758
  orientation: 
    x: 3.16670023101e-05
    y: -6.27986334826e-05
    z: 0.999999791358
    w: 0.000642134723733
---
header: 
  seq: 4713
  stamp: 
    secs: 8343
    nsecs: 798054203
  frame_id: "/map"
pose: 
  position: 
    x: 72.7521896362
    y: -187.597244263
    z: 0.256947755814
  orientation: 
    x: 2.14883284119e-05
    y: 3.85172108228e-05
    z: 0.999999930142
    w: 0.000371174849783
---
header: 
  seq: 4714
  stamp: 
    secs: 8343
    nsecs: 848054204
  frame_id: "/map"
pose: 
  position: 
    x: 72.4887924194
    y: -187.606460571
    z: 0.255986690521
  orientation: 
    x: 2.20092368792e-05
    y: 1.39896508412e-06
    z: 0.999999847013
    w: 0.000552708968332
---
header: 
  seq: 4715
  stamp: 
    secs: 8343
    nsecs: 898054205
  frame_id: "/map"
pose: 
  position: 
    x: 72.2070388794
    y: -187.590835571
    z: 0.256667852402
  orientation: 
    x: 7.71260733709e-06
    y: -2.18562914771e-05
    z: 0.999999937441
    w: 0.000352960586866
---
header: 
  seq: 4716
  stamp: 
    secs: 8343
    nsecs: 948054205
  frame_id: "/map"
pose: 
  position: 
    x: 71.9285125732
    y: -187.599334717
    z: 0.255153417587
  orientation: 
    x: 3.45958586916e-05
    y: -3.89109237805e-05
    z: 0.999999724045
    w: 0.000741079000573
---
header: 
  seq: 4717
  stamp: 
    secs: 8343
    nsecs: 998054206
  frame_id: "/map"
pose: 
  position: 
    x: 71.6429595947
    y: -187.606201172
    z: 0.254905700684
  orientation: 
    x: 3.12423325896e-05
    y: -2.04963297959e-05
    z: 0.999999960408
    w: 0.000278905400359
---
header: 
  seq: 4718
  stamp: 
    secs: 8344
    nsecs:  48054207
  frame_id: "/map"
pose: 
  position: 
    x: 71.3842315674
    y: -187.600753784
    z: 0.252263784409
  orientation: 
    x: 2.5367867664e-05
    y: -0.000135359195465
    z: 0.999999818268
    w: 0.000586939339765
---
header: 
  seq: 4719
  stamp: 
    secs: 8344
    nsecs:  98054208
  frame_id: "/map"
pose: 
  position: 
    x: 71.1173400879
    y: -187.592483521
    z: 0.255858659744
  orientation: 
    x: -1.04737244597e-06
    y: -2.36022236073e-05
    z: 0.999999957327
    w: 0.000291184629021
---
header: 
  seq: 4720
  stamp: 
    secs: 8344
    nsecs: 148054208
  frame_id: "/map"
pose: 
  position: 
    x: 70.8178939819
    y: -187.588882446
    z: 0.255042314529
  orientation: 
    x: 3.44497547455e-05
    y: -6.28597377449e-05
    z: 0.999999754464
    w: 0.000697089993468
---
header: 
  seq: 4721
  stamp: 
    secs: 8344
    nsecs: 198054209
  frame_id: "/map"
pose: 
  position: 
    x: 70.555519104
    y: -187.595092773
    z: 0.256116867065
  orientation: 
    x: 1.20221413627e-05
    y: -2.15333561266e-05
    z: 0.999999916946
    w: 0.000406817341691
---
header: 
  seq: 4722
  stamp: 
    secs: 8344
    nsecs: 248054210
  frame_id: "/map"
pose: 
  position: 
    x: 70.2869338989
    y: -187.604446411
    z: 0.255922079086
  orientation: 
    x: 4.24760134939e-05
    y: -1.39427040573e-05
    z: 0.999999619768
    w: 0.00087089862257
---
header: 
  seq: 4723
  stamp: 
    secs: 8344
    nsecs: 298054211
  frame_id: "/map"
pose: 
  position: 
    x: 69.997253418
    y: -187.587722778
    z: 0.25617980957
  orientation: 
    x: 6.24944063943e-05
    y: -3.1292762218e-05
    z: 0.999999829065
    w: 0.000580503549513
---
header: 
  seq: 4724
  stamp: 
    secs: 8344
    nsecs: 348054211
  frame_id: "/map"
pose: 
  position: 
    x: 69.7110824585
    y: -187.584518433
    z: 0.255134820938
  orientation: 
    x: 7.25199536568e-05
    y: -3.31759158742e-05
    z: 0.999999493117
    w: 0.00100369600666
---
header: 
  seq: 4725
  stamp: 
    secs: 8344
    nsecs: 398054212
  frame_id: "/map"
pose: 
  position: 
    x: 69.4455413818
    y: -187.59815979
    z: 0.255373716354
  orientation: 
    x: 5.8447958921e-05
    y: -2.61111058941e-05
    z: 0.999999856637
    w: 0.000531628157635
---
header: 
  seq: 4726
  stamp: 
    secs: 8344
    nsecs: 448054213
  frame_id: "/map"
pose: 
  position: 
    x: 69.1730194092
    y: -187.588363647
    z: 0.254288196564
  orientation: 
    x: 1.75329620107e-05
    y: -9.29390167643e-05
    z: 0.999999705614
    w: 0.000761463509537
---
header: 
  seq: 4727
  stamp: 
    secs: 8344
    nsecs: 498054214
  frame_id: "/map"
pose: 
  position: 
    x: 68.8843307495
    y: -187.590270996
    z: 0.253978013992
  orientation: 
    x: 4.13405253577e-05
    y: -0.000103811267756
    z: 0.999999895556
    w: 0.000443172127969
---
header: 
  seq: 4728
  stamp: 
    secs: 8344
    nsecs: 548054214
  frame_id: "/map"
pose: 
  position: 
    x: 68.6070556641
    y: -187.589706421
    z: 0.254013538361
  orientation: 
    x: 3.96922402382e-05
    y: -0.00011794771085
    z: 0.999999829052
    w: 0.000571321702109
---
header: 
  seq: 4729
  stamp: 
    secs: 8344
    nsecs: 598054215
  frame_id: "/map"
pose: 
  position: 
    x: 68.3428649902
    y: -187.590942383
    z: 0.256399869919
  orientation: 
    x: 6.6977998084e-05
    y: 1.91500627777e-06
    z: 0.999999947456
    w: 0.000317172316829
---
header: 
  seq: 4730
  stamp: 
    secs: 8344
    nsecs: 648054216
  frame_id: "/map"
pose: 
  position: 
    x: 68.0621414185
    y: -187.585784912
    z: 0.258507728577
  orientation: 
    x: -4.69448048702e-05
    y: -4.53542780018e-05
    z: -0.999999900144
    w: 0.000442097778631
---
header: 
  seq: 4731
  stamp: 
    secs: 8344
    nsecs: 698054217
  frame_id: "/map"
pose: 
  position: 
    x: 67.771774292
    y: -187.594696045
    z: 0.255560398102
  orientation: 
    x: 6.87515572809e-05
    y: -3.42336702511e-05
    z: 0.999999940561
    w: 0.00033612454982
---
header: 
  seq: 4732
  stamp: 
    secs: 8344
    nsecs: 748054217
  frame_id: "/map"
pose: 
  position: 
    x: 67.5027694702
    y: -187.600982666
    z: 0.253991365433
  orientation: 
    x: 7.87992590489e-05
    y: -4.58688504868e-05
    z: 0.999999860673
    w: 0.000519943551114
---
header: 
  seq: 4733
  stamp: 
    secs: 8344
    nsecs: 798054218
  frame_id: "/map"
pose: 
  position: 
    x: 67.2400665283
    y: -187.608581543
    z: 0.254587650299
  orientation: 
    x: 8.07538063607e-05
    y: -4.41109239051e-05
    z: 0.999999880276
    w: 0.000480604573415
---
header: 
  seq: 4734
  stamp: 
    secs: 8344
    nsecs: 848054219
  frame_id: "/map"
pose: 
  position: 
    x: 66.9462432861
    y: -187.593826294
    z: 0.256366014481
  orientation: 
    x: 7.15374085682e-05
    y: -3.27944348121e-05
    z: 0.999999784954
    w: 0.000651075006825
---
header: 
  seq: 4735
  stamp: 
    secs: 8344
    nsecs: 898054220
  frame_id: "/map"
pose: 
  position: 
    x: 66.659324646
    y: -187.579177856
    z: 0.256626844406
  orientation: 
    x: 6.16500573214e-05
    y: -2.04376816029e-05
    z: 0.999999883656
    w: 0.000477984268377
---
header: 
  seq: 4736
  stamp: 
    secs: 8344
    nsecs: 948054220
  frame_id: "/map"
pose: 
  position: 
    x: 66.3903579712
    y: -187.584823608
    z: 0.256294250488
  orientation: 
    x: 7.90873559378e-05
    y: -3.43925205807e-06
    z: 0.999999655961
    w: 0.000825718655209
---
header: 
  seq: 4737
  stamp: 
    secs: 8344
    nsecs: 998054221
  frame_id: "/map"
pose: 
  position: 
    x: 66.121711731
    y: -187.573883057
    z: 0.255853176117
  orientation: 
    x: 3.9769760047e-05
    y: -5.9716316604e-05
    z: 0.999999815601
    w: 0.000603033669373
---
header: 
  seq: 4738
  stamp: 
    secs: 8345
    nsecs:  48054222
  frame_id: "/map"
pose: 
  position: 
    x: 65.8254699707
    y: -187.578292847
    z: 0.255672454834
  orientation: 
    x: 4.87715253498e-05
    y: -5.40517169678e-05
    z: 0.999999643329
    w: 0.000841451901079
---
header: 
  seq: 4739
  stamp: 
    secs: 8345
    nsecs:  98054222
  frame_id: "/map"
pose: 
  position: 
    x: 65.5463027954
    y: -187.598587036
    z: 0.255376815796
  orientation: 
    x: 2.54756997164e-05
    y: -6.70830995174e-05
    z: 0.999999843351
    w: 0.000555112180801
---
header: 
  seq: 4740
  stamp: 
    secs: 8345
    nsecs: 148054223
  frame_id: "/map"
pose: 
  position: 
    x: 65.2788848877
    y: -187.594863892
    z: 0.255917072296
  orientation: 
    x: 1.44319243643e-05
    y: -3.87517573497e-05
    z: 0.999999815373
    w: 0.000606254111051
---
header: 
  seq: 4741
  stamp: 
    secs: 8345
    nsecs: 198054224
  frame_id: "/map"
pose: 
  position: 
    x: 65.0031051636
    y: -187.584945679
    z: 0.256548404694
  orientation: 
    x: 2.36478843692e-05
    y: 9.3541989766e-06
    z: 0.999999747565
    w: 0.000710086217413
---
header: 
  seq: 4742
  stamp: 
    secs: 8345
    nsecs: 248054225
  frame_id: "/map"
pose: 
  position: 
    x: 64.7126998901
    y: -187.581939697
    z: 0.257512331009
  orientation: 
    x: 4.62283299441e-05
    y: -2.31327088029e-05
    z: 0.999999667662
    w: 0.00081363650854
---
header: 
  seq: 4743
  stamp: 
    secs: 8345
    nsecs: 298054225
  frame_id: "/map"
pose: 
  position: 
    x: 64.4490890503
    y: -187.575012207
    z: 0.256575345993
  orientation: 
    x: -7.53085222855e-06
    y: 1.53611130423e-05
    z: 0.999999888619
    w: 0.000471667308856
---
header: 
  seq: 4744
  stamp: 
    secs: 8345
    nsecs: 348054226
  frame_id: "/map"
pose: 
  position: 
    x: 64.1735458374
    y: -187.57321167
    z: 0.25615644455
  orientation: 
    x: 7.80833380165e-06
    y: -2.29264477415e-05
    z: 0.999999755684
    w: 0.00069860210277
---
header: 
  seq: 4745
  stamp: 
    secs: 8345
    nsecs: 398054227
  frame_id: "/map"
pose: 
  position: 
    x: 63.8824958801
    y: -187.5831604
    z: 0.255985021591
  orientation: 
    x: 4.06089974525e-05
    y: -4.54843962312e-05
    z: 0.999999789823
    w: 0.00064547272864
---
header: 
  seq: 4746
  stamp: 
    secs: 8345
    nsecs: 448054228
  frame_id: "/map"
pose: 
  position: 
    x: 63.5885505676
    y: -187.595947266
    z: 0.256554841995
  orientation: 
    x: 5.23223550734e-05
    y: -3.15609658355e-05
    z: 0.999999557304
    w: 0.000938966103321
---
header: 
  seq: 4747
  stamp: 
    secs: 8345
    nsecs: 498054228
  frame_id: "/map"
pose: 
  position: 
    x: 63.3193626404
    y: -187.57484436
    z: 0.256492137909
  orientation: 
    x: 2.20126964805e-05
    y: -1.26388801716e-05
    z: 0.999999774407
    w: 0.000671223463089
---
header: 
  seq: 4748
  stamp: 
    secs: 8345
    nsecs: 548054229
  frame_id: "/map"
pose: 
  position: 
    x: 63.0515022278
    y: -187.580566406
    z: 0.256129026413
  orientation: 
    x: 4.02769188501e-05
    y: -2.79411373528e-05
    z: 0.99999967471
    w: 0.000805094605022
---
header: 
  seq: 4749
  stamp: 
    secs: 8345
    nsecs: 598054230
  frame_id: "/map"
pose: 
  position: 
    x: 62.7746162415
    y: -187.582717896
    z: 0.255660533905
  orientation: 
    x: 4.36775301412e-05
    y: -3.85617958622e-05
    z: 0.999999742881
    w: 0.000714733436637
---
header: 
  seq: 4750
  stamp: 
    secs: 8345
    nsecs: 648054231
  frame_id: "/map"
pose: 
  position: 
    x: 62.4871025085
    y: -187.586776733
    z: 0.256333112717
  orientation: 
    x: 4.40123937908e-05
    y: -4.7069542936e-06
    z: 0.999999771343
    w: 0.000674799839736
---
header: 
  seq: 4751
  stamp: 
    secs: 8345
    nsecs: 698054231
  frame_id: "/map"
pose: 
  position: 
    x: 62.2223968506
    y: -187.575805664
    z: 0.256625413895
  orientation: 
    x: 2.65950806228e-05
    y: -1.49740416856e-05
    z: 0.999999924315
    w: 0.000387862925274
---
header: 
  seq: 4752
  stamp: 
    secs: 8345
    nsecs: 748054232
  frame_id: "/map"
pose: 
  position: 
    x: 61.9404640198
    y: -187.589447021
    z: 0.255198955536
  orientation: 
    x: 5.08882618282e-05
    y: -2.04862333249e-05
    z: 0.999999644373
    w: 0.000841572716583
---
header: 
  seq: 4753
  stamp: 
    secs: 8345
    nsecs: 798054233
  frame_id: "/map"
pose: 
  position: 
    x: 61.6363220215
    y: -187.585739136
    z: 0.254990577698
  orientation: 
    x: 3.78254428739e-05
    y: -4.66565688037e-05
    z: 0.99999988282
    w: 0.00048036797025
---
header: 
  seq: 4754
  stamp: 
    secs: 8345
    nsecs: 848054234
  frame_id: "/map"
pose: 
  position: 
    x: 61.3757553101
    y: -187.581756592
    z: 0.256757497787
  orientation: 
    x: 5.34504524587e-05
    y: -2.81927322452e-07
    z: 0.999999754854
    w: 0.000698164971342
---
header: 
  seq: 4755
  stamp: 
    secs: 8345
    nsecs: 898054234
  frame_id: "/map"
pose: 
  position: 
    x: 61.092338562
    y: -187.57069397
    z: 0.256439685822
  orientation: 
    x: 4.96922485183e-05
    y: -2.30876644204e-05
    z: 0.999999844953
    w: 0.000554159107065
---
header: 
  seq: 4756
  stamp: 
    secs: 8345
    nsecs: 948054235
  frame_id: "/map"
pose: 
  position: 
    x: 60.811252594
    y: -187.583633423
    z: 0.256068944931
  orientation: 
    x: 5.29192440211e-05
    y: -1.64851241542e-05
    z: 0.999999685412
    w: 0.000791266571078
---
header: 
  seq: 4757
  stamp: 
    secs: 8345
    nsecs: 998054236
  frame_id: "/map"
pose: 
  position: 
    x: 60.533657074
    y: -187.583343506
    z: 0.256155490875
  orientation: 
    x: 4.27092089771e-05
    y: -1.93179578499e-05
    z: 0.999999900541
    w: 0.000443533213441
---
header: 
  seq: 4758
  stamp: 
    secs: 8346
    nsecs:  48054237
  frame_id: "/map"
pose: 
  position: 
    x: 60.2615814209
    y: -187.590103149
    z: 0.256254196167
  orientation: 
    x: 3.05923146843e-05
    y: -1.2267019585e-05
    z: 0.999999643123
    w: 0.000844195989833
---
header: 
  seq: 4759
  stamp: 
    secs: 8346
    nsecs:  98054237
  frame_id: "/map"
pose: 
  position: 
    x: 59.9725952148
    y: -187.590789795
    z: 0.256930589676
  orientation: 
    x: -8.92119994672e-06
    y: 6.69105039725e-06
    z: 0.999999940031
    w: 0.00034613999736
---
header: 
  seq: 4760
  stamp: 
    secs: 8346
    nsecs: 148054238
  frame_id: "/map"
pose: 
  position: 
    x: 59.6851387024
    y: -187.597625732
    z: 0.256011009216
  orientation: 
    x: 2.55436123849e-05
    y: 1.43999429568e-05
    z: 0.999999713367
    w: 0.000756575157241
---
header: 
  seq: 4761
  stamp: 
    secs: 8346
    nsecs: 198054239
  frame_id: "/map"
pose: 
  position: 
    x: 59.4171829224
    y: -187.580825806
    z: 0.255457639694
  orientation: 
    x: 2.11153663798e-06
    y: -2.80571823359e-05
    z: 0.999999942515
    w: 0.000337903353494
---
header: 
  seq: 4762
  stamp: 
    secs: 8346
    nsecs: 248054240
  frame_id: "/map"
pose: 
  position: 
    x: 59.1400985718
    y: -187.577331543
    z: 0.254060745239
  orientation: 
    x: 3.95827067614e-05
    y: -2.5488418076e-05
    z: 0.99999997659
    w: 0.000211194131346
---
header: 
  seq: 4763
  stamp: 
    secs: 8346
    nsecs: 298054240
  frame_id: "/map"
pose: 
  position: 
    x: 58.8644180298
    y: -187.592712402
    z: 0.257040500641
  orientation: 
    x: 2.59226366742e-05
    y: 4.75676181726e-06
    z: 0.999999916563
    w: 0.000407652180495
---
header: 
  seq: 4764
  stamp: 
    secs: 8346
    nsecs: 348054241
  frame_id: "/map"
pose: 
  position: 
    x: 58.5872688293
    y: -187.599304199
    z: 0.257673025131
  orientation: 
    x: 3.02004658628e-05
    y: 6.98280673871e-05
    z: 0.999999871593
    w: 0.000501025447327
---
header: 
  seq: 4765
  stamp: 
    secs: 8346
    nsecs: 398054242
  frame_id: "/map"
pose: 
  position: 
    x: 58.3227653503
    y: -187.577972412
    z: 0.256164550781
  orientation: 
    x: 1.92684056193e-05
    y: -6.33305861367e-07
    z: 0.999999943752
    w: 0.000334849063683
---
header: 
  seq: 4766
  stamp: 
    secs: 8346
    nsecs: 448054243
  frame_id: "/map"
pose: 
  position: 
    x: 58.0360641479
    y: -187.573043823
    z: 0.257125377655
  orientation: 
    x: 0.000113555356669
    y: 4.05939457987e-05
    z: 0.999998713702
    w: 0.00159939120721
---
header: 
  seq: 4767
  stamp: 
    secs: 8346
    nsecs: 498054243
  frame_id: "/map"
pose: 
  position: 
    x: 57.7562904358
    y: -187.58581543
    z: 0.256629228592
  orientation: 
    x: 3.5249681894e-05
    y: -2.1847010642e-05
    z: 0.99999994117
    w: 0.000340499891787
---
header: 
  seq: 4768
  stamp: 
    secs: 8346
    nsecs: 548054244
  frame_id: "/map"
pose: 
  position: 
    x: 57.4817657471
    y: -187.594284058
    z: 0.256194114685
  orientation: 
    x: 2.52538242358e-05
    y: -3.25836566863e-05
    z: 0.999999906725
    w: 0.000429943333555
---
header: 
  seq: 4769
  stamp: 
    secs: 8346
    nsecs: 598054245
  frame_id: "/map"
pose: 
  position: 
    x: 57.2064094543
    y: -187.582519531
    z: 0.255578756332
  orientation: 
    x: 3.48094699082e-05
    y: -3.66536618202e-05
    z: 0.999999899832
    w: 0.000444724855018
---
header: 
  seq: 4770
  stamp: 
    secs: 8346
    nsecs: 648054246
  frame_id: "/map"
pose: 
  position: 
    x: 56.9202194214
    y: -187.577301025
    z: 0.255702495575
  orientation: 
    x: 2.86715419391e-05
    y: -1.10995591593e-05
    z: 0.999999789435
    w: 0.000648216037557
---
header: 
  seq: 4771
  stamp: 
    secs: 8346
    nsecs: 698054246
  frame_id: "/map"
pose: 
  position: 
    x: 56.6344413757
    y: -187.586883545
    z: 0.257003068924
  orientation: 
    x: 7.93888214293e-06
    y: 1.01262940731e-05
    z: 0.999999962276
    w: 0.000274376182891
---
header: 
  seq: 4772
  stamp: 
    secs: 8346
    nsecs: 748054247
  frame_id: "/map"
pose: 
  position: 
    x: 56.3713760376
    y: -187.587310791
    z: 0.256433725357
  orientation: 
    x: 3.25001205502e-05
    y: 6.86058225178e-07
    z: 0.999999899756
    w: 0.000446578168237
---
header: 
  seq: 4773
  stamp: 
    secs: 8346
    nsecs: 798054248
  frame_id: "/map"
pose: 
  position: 
    x: 56.0893211365
    y: -187.579803467
    z: 0.25704574585
  orientation: 
    x: 3.78648473343e-05
    y: -4.00094988579e-08
    z: 0.999999994504
    w: 9.77659073153e-05
---
header: 
  seq: 4774
  stamp: 
    secs: 8346
    nsecs: 848054249
  frame_id: "/map"
pose: 
  position: 
    x: 55.8006782532
    y: -187.581619263
    z: 0.256108283997
  orientation: 
    x: 7.14522335062e-05
    y: -2.69692080956e-05
    z: 0.999999730117
    w: 0.000730707276877
---
header: 
  seq: 4775
  stamp: 
    secs: 8346
    nsecs: 898054249
  frame_id: "/map"
pose: 
  position: 
    x: 55.5404243469
    y: -187.583221436
    z: 0.254635334015
  orientation: 
    x: 1.4023790828e-06
    y: -1.25908230656e-05
    z: 0.999999982703
    w: 0.00018556513992
---
header: 
  seq: 4776
  stamp: 
    secs: 8346
    nsecs: 948054250
  frame_id: "/map"
pose: 
  position: 
    x: 55.270652771
    y: -187.577819824
    z: 0.257166147232
  orientation: 
    x: 4.76953916464e-05
    y: -1.60310766833e-06
    z: 0.999999862197
    w: 0.000522808079764
---
header: 
  seq: 4777
  stamp: 
    secs: 8346
    nsecs: 998054251
  frame_id: "/map"
pose: 
  position: 
    x: 54.9825172424
    y: -187.586135864
    z: 0.256407976151
  orientation: 
    x: 2.78310211763e-05
    y: -2.54156825031e-05
    z: 0.999999988876
    w: 0.000144318035474
---
header: 
  seq: 4778
  stamp: 
    secs: 8347
    nsecs:  48054252
  frame_id: "/map"
pose: 
  position: 
    x: 54.7072525024
    y: -187.595550537
    z: 0.256314277649
  orientation: 
    x: 2.00260149111e-05
    y: -2.12533787709e-05
    z: 0.999999927058
    w: 0.000380829549172
---
header: 
  seq: 4779
  stamp: 
    secs: 8347
    nsecs:  98054252
  frame_id: "/map"
pose: 
  position: 
    x: 54.4356956482
    y: -187.586349487
    z: 0.256101846695
  orientation: 
    x: 1.74921586956e-05
    y: -3.34065465602e-05
    z: 0.999999995014
    w: 9.24621064849e-05
---
header: 
  seq: 4780
  stamp: 
    secs: 8347
    nsecs: 148054253
  frame_id: "/map"
pose: 
  position: 
    x: 54.1672363281
    y: -187.580123901
    z: 0.256832838058
  orientation: 
    x: 7.60416651823e-05
    y: -2.21172230786e-05
    z: 0.999999912311
    w: 0.000411226621863
---
header: 
  seq: 4781
  stamp: 
    secs: 8347
    nsecs: 198054254
  frame_id: "/map"
pose: 
  position: 
    x: 53.8769416809
    y: -187.589309692
    z: 0.257503271103
  orientation: 
    x: 2.99198843632e-05
    y: 1.60780916189e-05
    z: 0.999999991802
    w: 0.000123457593779
---
header: 
  seq: 4782
  stamp: 
    secs: 8347
    nsecs: 248054255
  frame_id: "/map"
pose: 
  position: 
    x: 53.5956344604
    y: -187.580780029
    z: 0.256326198578
  orientation: 
    x: 3.14416110452e-05
    y: -2.82806826957e-05
    z: 0.999999875455
    w: 0.000497295240146
---
header: 
  seq: 4783
  stamp: 
    secs: 8347
    nsecs: 298054255
  frame_id: "/map"
pose: 
  position: 
    x: 53.3357124329
    y: -187.591903687
    z: 0.256091117859
  orientation: 
    x: 3.25719511486e-05
    y: -4.05328433474e-05
    z: 0.999999960745
    w: 0.000275328434407
---
header: 
  seq: 4784
  stamp: 
    secs: 8347
    nsecs: 348054256
  frame_id: "/map"
pose: 
  position: 
    x: 53.0428276062
    y: -187.586349487
    z: 0.255893468857
  orientation: 
    x: 2.02058454306e-05
    y: -1.95198571459e-06
    z: 0.999999829705
    w: 0.000583247289076
---
header: 
  seq: 4785
  stamp: 
    secs: 8347
    nsecs: 398054257
  frame_id: "/map"
pose: 
  position: 
    x: 52.7598419189
    y: -187.57749939
    z: 0.256628036499
  orientation: 
    x: 4.93186761236e-05
    y: -5.56989907808e-05
    z: 0.999999939858
    w: 0.000338746325969
---
header: 
  seq: 4786
  stamp: 
    secs: 8347
    nsecs: 448054257
  frame_id: "/map"
pose: 
  position: 
    x: 52.4962806702
    y: -187.586547852
    z: 0.257174968719
  orientation: 
    x: -2.13466587989e-06
    y: -1.09731513307e-06
    z: 0.99999991057
    w: 0.000422910822606
---
header: 
  seq: 4787
  stamp: 
    secs: 8347
    nsecs: 498054258
  frame_id: "/map"
pose: 
  position: 
    x: 52.2285461426
    y: -187.578781128
    z: 0.257127523422
  orientation: 
    x: -1.02440144379e-05
    y: -1.30683150577e-05
    z: 0.999999991929
    w: 0.000125960637665
---
header: 
  seq: 4788
  stamp: 
    secs: 8347
    nsecs: 548054259
  frame_id: "/map"
pose: 
  position: 
    x: 51.9342346191
    y: -187.571380615
    z: 0.257216691971
  orientation: 
    x: 2.45363115375e-05
    y: 2.77563947963e-06
    z: 0.999999786656
    w: 0.000652746356241
---
header: 
  seq: 4789
  stamp: 
    secs: 8347
    nsecs: 598054260
  frame_id: "/map"
pose: 
  position: 
    x: 51.6573944092
    y: -187.599258423
    z: 0.25635766983
  orientation: 
    x: -3.4738420722e-05
    y: 1.59198456811e-05
    z: 0.999999953702
    w: 0.000301887409916
---
header: 
  seq: 4790
  stamp: 
    secs: 8347
    nsecs: 648054260
  frame_id: "/map"
pose: 
  position: 
    x: 51.3989257812
    y: -187.594650269
    z: 0.255036115646
  orientation: 
    x: -1.68874924746e-05
    y: 6.62312753483e-06
    z: 0.999999861513
    w: 0.000525971351629
---
header: 
  seq: 4791
  stamp: 
    secs: 8347
    nsecs: 698054261
  frame_id: "/map"
pose: 
  position: 
    x: 51.117351532
    y: -187.589233398
    z: 0.256152153015
  orientation: 
    x: -3.16666871151e-05
    y: 3.28715530298e-06
    z: 0.999999975108
    w: 0.000220838917149
---
header: 
  seq: 4792
  stamp: 
    secs: 8347
    nsecs: 748054262
  frame_id: "/map"
pose: 
  position: 
    x: 50.8452606201
    y: -187.579727173
    z: 0.256538391113
  orientation: 
    x: -2.56766311209e-06
    y: -1.78075183107e-05
    z: 0.999999800978
    w: 0.00063065143463
---
header: 
  seq: 4793
  stamp: 
    secs: 8347
    nsecs: 798054263
  frame_id: "/map"
pose: 
  position: 
    x: 50.5712280273
    y: -187.583221436
    z: 0.256016492844
  orientation: 
    x: -3.05587975968e-05
    y: -6.61577460794e-05
    z: 0.999999780788
    w: 0.00065811281323
---
header: 
  seq: 4794
  stamp: 
    secs: 8347
    nsecs: 848054263
  frame_id: "/map"
pose: 
  position: 
    x: 50.3049354553
    y: -187.582015991
    z: 0.257076263428
  orientation: 
    x: 8.41213504866e-06
    y: 2.61393274024e-05
    z: 0.999999889005
    w: 0.000470356341346
---
header: 
  seq: 4795
  stamp: 
    secs: 8347
    nsecs: 898054264
  frame_id: "/map"
pose: 
  position: 
    x: 50.0246353149
    y: -187.592422485
    z: 0.256844997406
  orientation: 
    x: -9.70451207439e-06
    y: 4.46587204441e-05
    z: 0.999999993064
    w: 0.000108552022094
---
header: 
  seq: 4796
  stamp: 
    secs: 8347
    nsecs: 948054265
  frame_id: "/map"
pose: 
  position: 
    x: 49.7404899597
    y: -187.599334717
    z: 0.256057024002
  orientation: 
    x: 4.26132249536e-05
    y: -2.04038804882e-05
    z: 0.999999831932
    w: 0.000577844589086
---
header: 
  seq: 4797
  stamp: 
    secs: 8347
    nsecs: 998054266
  frame_id: "/map"
pose: 
  position: 
    x: 49.4767799377
    y: -187.600875854
    z: 0.255041122437
  orientation: 
    x: 1.88345340411e-05
    y: 3.41443118158e-05
    z: -0.99999997872
    w: 0.000202579644486
---
header: 
  seq: 4798
  stamp: 
    secs: 8348
    nsecs:  48054266
  frame_id: "/map"
pose: 
  position: 
    x: 49.2016220093
    y: -187.587005615
    z: 0.254870176315
  orientation: 
    x: -3.58990398827e-10
    y: -2.92742526616e-05
    z: 0.999999954936
    w: 0.000298782177999
---
header: 
  seq: 4799
  stamp: 
    secs: 8348
    nsecs:  98054267
  frame_id: "/map"
pose: 
  position: 
    x: 48.9275398254
    y: -187.586013794
    z: 0.253907442093
  orientation: 
    x: 5.09427042495e-06
    y: -5.49815592568e-05
    z: 0.999999979093
    w: 0.000196889760079
---
header: 
  seq: 4800
  stamp: 
    secs: 8348
    nsecs: 148054268
  frame_id: "/map"
pose: 
  position: 
    x: 48.6398620605
    y: -187.580673218
    z: 0.256196737289
  orientation: 
    x: 4.0892917311e-05
    y: -2.21951095008e-05
    z: 0.999999924713
    w: 0.000385239812135
---
header: 
  seq: 4801
  stamp: 
    secs: 8348
    nsecs: 198054269
  frame_id: "/map"
pose: 
  position: 
    x: 48.3731994629
    y: -187.568450928
    z: 0.255597352982
  orientation: 
    x: 1.32956875806e-05
    y: -3.11376734941e-05
    z: 0.99999996949
    w: 0.000244692563831
---
header: 
  seq: 4802
  stamp: 
    secs: 8348
    nsecs: 248054269
  frame_id: "/map"
pose: 
  position: 
    x: 48.1024665833
    y: -187.579299927
    z: 0.256689310074
  orientation: 
    x: 1.81540920839e-05
    y: -7.95836536952e-06
    z: 0.999999820485
    w: 0.000598863599674
---
header: 
  seq: 4803
  stamp: 
    secs: 8348
    nsecs: 298054270
  frame_id: "/map"
pose: 
  position: 
    x: 47.8066940308
    y: -187.578262329
    z: 0.255851984024
  orientation: 
    x: 3.86925140162e-05
    y: -2.84418490949e-05
    z: 0.999999943235
    w: 0.00033350276096
---
header: 
  seq: 4804
  stamp: 
    secs: 8348
    nsecs: 348054271
  frame_id: "/map"
pose: 
  position: 
    x: 47.5447463989
    y: -187.590667725
    z: 0.254357337952
  orientation: 
    x: 2.03429567666e-05
    y: -3.71842668272e-05
    z: 0.999999904874
    w: 0.000434115735986
---
header: 
  seq: 4805
  stamp: 
    secs: 8348
    nsecs: 398054272
  frame_id: "/map"
pose: 
  position: 
    x: 47.2584190369
    y: -187.590576172
    z: 0.255322933197
  orientation: 
    x: 4.52325441402e-05
    y: -3.11912828982e-05
    z: 0.999999934728
    w: 0.000357105892135
---
header: 
  seq: 4806
  stamp: 
    secs: 8348
    nsecs: 448054272
  frame_id: "/map"
pose: 
  position: 
    x: 46.9856185913
    y: -187.578155518
    z: 0.255843877792
  orientation: 
    x: 1.8828727727e-05
    y: 6.85278218668e-06
    z: 0.999999817685
    w: 0.000603513008063
---
header: 
  seq: 4807
  stamp: 
    secs: 8348
    nsecs: 498054273
  frame_id: "/map"
pose: 
  position: 
    x: 46.7066879272
    y: -187.589385986
    z: 0.25657248497
  orientation: 
    x: 3.28601376084e-05
    y: -8.38019581438e-06
    z: 0.999999968548
    w: 0.000248503920017
---
header: 
  seq: 4808
  stamp: 
    secs: 8348
    nsecs: 548054274
  frame_id: "/map"
pose: 
  position: 
    x: 46.4288101196
    y: -187.588226318
    z: 0.257049560547
  orientation: 
    x: -2.05345387565e-06
    y: 2.06164762871e-05
    z: -0.999999999639
    w: 1.70906836937e-05
---
header: 
  seq: 4809
  stamp: 
    secs: 8348
    nsecs: 598054275
  frame_id: "/map"
pose: 
  position: 
    x: 46.1596679688
    y: -187.594894409
    z: 0.25567817688
  orientation: 
    x: -1.74341210611e-05
    y: 1.44921746989e-06
    z: 0.999999785504
    w: 0.000654741049645
---
header: 
  seq: 4810
  stamp: 
    secs: 8348
    nsecs: 648054275
  frame_id: "/map"
pose: 
  position: 
    x: 45.8622360229
    y: -187.59211731
    z: 0.256301403046
  orientation: 
    x: 2.87750190686e-05
    y: -3.48539994407e-06
    z: 0.999999856714
    w: 0.000534538310568
---
header: 
  seq: 4811
  stamp: 
    secs: 8348
    nsecs: 698054276
  frame_id: "/map"
pose: 
  position: 
    x: 45.5992050171
    y: -187.593597412
    z: 0.255542993546
  orientation: 
    x: 2.66786344013e-06
    y: -1.90468193076e-05
    z: 0.999999968282
    w: 0.000251130228856
---
header: 
  seq: 4812
