header: 
  seq: 4900
  stamp: 
    secs: 289
    nsecs: 341307753
  frame_id: "/map"
pose: 
  position: 
    x: 143.531463623
    y: -198.021499634
    z: 0.242662191391
  orientation: 
    x: -0.00023536665632
    y: 4.65333635811e-05
    z: 0.429565449707
    w: 0.903035695228
---
header: 
  seq: 4901
  stamp: 
    secs: 289
    nsecs: 391307753
  frame_id: "/map"
pose: 
  position: 
    x: 143.596801758
    y: -198.007476807
    z: 0.244571685791
  orientation: 
    x: -0.000225658222785
    y: -0.000117423513922
    z: 0.428846546269
    w: 0.903377315989
---
header: 
  seq: 4902
  stamp: 
    secs: 289
    nsecs: 441307754
  frame_id: "/map"
pose: 
  position: 
    x: 143.50062561
    y: -198.051742554
    z: 0.241115808487
  orientation: 
    x: -0.000171517340537
    y: -5.31012809871e-05
    z: 0.429829942118
    w: 0.902909845234
---
header: 
  seq: 4903
  stamp: 
    secs: 289
    nsecs: 491307755
  frame_id: "/map"
pose: 
  position: 
    x: 143.51373291
    y: -198.038833618
    z: 0.242810726166
  orientation: 
    x: -0.000211415386407
    y: -6.24234536082e-05
    z: 0.429523708233
    w: 0.903055555031
---
header: 
  seq: 4904
  stamp: 
    secs: 289
    nsecs: 541307755
  frame_id: "/map"
pose: 
  position: 
    x: 143.615386963
    y: -198.064376831
    z: 0.241183519363
  orientation: 
    x: -0.000222045101756
    y: 3.4303521652e-06
    z: 0.429293201618
    w: 0.90316515529
---
header: 
  seq: 4905
  stamp: 
    secs: 289
    nsecs: 591307756
  frame_id: "/map"
pose: 
  position: 
    x: 143.68057251
    y: -198.016372681
    z: 0.243297576904
  orientation: 
    x: -0.000175371887119
    y: 2.04386604338e-05
    z: 0.4286093841
    w: 0.903489880789
---
header: 
  seq: 4906
  stamp: 
    secs: 289
    nsecs: 641307757
  frame_id: "/map"
pose: 
  position: 
    x: 143.676391602
    y: -197.99382019
    z: 0.24227643013
  orientation: 
    x: -0.000252247331772
    y: -0.000117627508248
    z: 0.428726280236
    w: 0.903434391182
---
header: 
  seq: 4907
  stamp: 
    secs: 289
    nsecs: 691307758
  frame_id: "/map"
pose: 
  position: 
    x: 143.663284302
    y: -197.983596802
    z: 0.238939523697
  orientation: 
    x: -0.000234653385741
    y: -0.000119320757311
    z: 0.42902271507
    w: 0.903293662467
---
header: 
  seq: 4908
  stamp: 
    secs: 289
    nsecs: 741307758
  frame_id: "/map"
pose: 
  position: 
    x: 143.64793396
    y: -197.977630615
    z: 0.245299577713
  orientation: 
    x: -0.000127941522839
    y: 3.97369527707e-06
    z: 0.429292986797
    w: 0.903165275629
---
header: 
  seq: 4909
  stamp: 
    secs: 289
    nsecs: 791307759
  frame_id: "/map"
pose: 
  position: 
    x: 143.493179321
    y: -198.029449463
    z: 0.242766857147
  orientation: 
    x: -0.000107618669873
    y: 4.25767645895e-05
    z: 0.429903117426
    w: 0.90287501695
---
header: 
  seq: 4910
  stamp: 
    secs: 289
    nsecs: 841307760
  frame_id: "/map"
pose: 
  position: 
    x: 143.539520264
    y: -198.019470215
    z: 0.241452455521
  orientation: 
    x: -0.000226626228894
    y: -0.000115014414731
    z: 0.429383100259
    w: 0.903122410653
---
header: 
  seq: 4911
  stamp: 
    secs: 289
    nsecs: 891307761
  frame_id: "/map"
pose: 
  position: 
    x: 143.533752441
    y: -198.025756836
    z: 0.243770837784
  orientation: 
    x: -0.000266836581483
    y: -4.51737623926e-05
    z: 0.429516159986
    w: 0.903059131546
---
header: 
  seq: 4912
  stamp: 
    secs: 289
    nsecs: 941307761
  frame_id: "/map"
pose: 
  position: 
    x: 143.54335022
    y: -198.016937256
    z: 0.24084353447
  orientation: 
    x: -0.000151234378659
    y: -6.10950691838e-05
    z: 0.429427475657
    w: 0.90310133238
---
header: 
  seq: 4913
  stamp: 
    secs: 289
    nsecs: 991307762
  frame_id: "/map"
pose: 
  position: 
    x: 143.570480347
    y: -197.967025757
    z: 0.240918874741
  orientation: 
    x: -0.000370109612951
    y: -3.1822238423e-05
    z: 0.429195897928
    w: 0.903211350243
---
header: 
  seq: 4914
  stamp: 
    secs: 290
    nsecs:  41307763
  frame_id: "/map"
pose: 
  position: 
    x: 143.574386597
    y: -197.989807129
    z: 0.237919092178
  orientation: 
    x: -0.000319070654685
    y: -6.78598388344e-05
    z: 0.429492068266
    w: 0.903070571376
---
header: 
  seq: 4915
  stamp: 
    secs: 290
    nsecs:  91307764
  frame_id: "/map"
pose: 
  position: 
    x: 143.583251953
    y: -197.981796265
    z: 0.242822408676
  orientation: 
    x: -0.000191104344309
    y: -9.01004100999e-05
    z: 0.42913717954
    w: 0.9032393019
---
header: 
  seq: 4916
  stamp: 
    secs: 290
    nsecs: 141307764
  frame_id: "/map"
pose: 
  position: 
    x: 143.529266357
    y: -198.024169922
    z: 0.242998123169
  orientation: 
    x: -0.000178645917844
    y: -6.8035533465e-05
    z: 0.429163682422
    w: 0.903226714146
---
header: 
  seq: 4917
  stamp: 
    secs: 290
    nsecs: 191307765
  frame_id: "/map"
pose: 
  position: 
    x: 143.600540161
    y: -198.078414917
    z: 0.240431547165
  orientation: 
    x: -0.000268993881086
    y: 1.26699734611e-05
    z: 0.429263476514
    w: 0.903179270805
---
header: 
  seq: 4918
  stamp: 
    secs: 290
    nsecs: 241307766
  frame_id: "/map"
pose: 
  position: 
    x: 143.349960327
    y: -197.716674805
    z: 0.244283676147
  orientation: 
    x: -0.000251720709868
    y: -8.20901491782e-06
    z: 0.427344948189
    w: 0.904088619454
---
header: 
  seq: 4919
  stamp: 
    secs: 290
    nsecs: 291307767
  frame_id: "/map"
pose: 
  position: 
    x: 143.361679077
    y: -197.725479126
    z: 0.241264820099
  orientation: 
    x: -0.000235149571266
    y: -4.80198900009e-05
    z: 0.42705170439
    w: 0.904227175093
---
header: 
  seq: 4920
  stamp: 
    secs: 290
    nsecs: 341307767
  frame_id: "/map"
pose: 
  position: 
    x: 143.371841431
    y: -197.726806641
    z: 0.2418653965
  orientation: 
    x: -0.000254080096249
    y: -8.18894413964e-05
    z: 0.427204548634
    w: 0.904154965901
---
header: 
  seq: 4921
  stamp: 
    secs: 290
    nsecs: 391307768
  frame_id: "/map"
pose: 
  position: 
    x: 143.391433716
    y: -197.733291626
    z: 0.241126298904
  orientation: 
    x: -0.00029011205964
    y: -0.000122770505719
    z: 0.427105712934
    w: 0.904201642744
---
header: 
  seq: 4922
  stamp: 
    secs: 290
    nsecs: 441307769
  frame_id: "/map"
pose: 
  position: 
    x: 143.37828064
    y: -197.742218018
    z: 0.245270013809
  orientation: 
    x: -0.0001942583216
    y: -7.18910357451e-06
    z: 0.427174981518
    w: 0.904168954
---
header: 
  seq: 4923
  stamp: 
    secs: 290
    nsecs: 491307770
  frame_id: "/map"
pose: 
  position: 
    x: 143.399215698
    y: -197.73550415
    z: 0.239760637283
  orientation: 
    x: -0.000347751298731
    y: -9.4605366468e-05
    z: 0.42715347146
    w: 0.904179065196
---
header: 
  seq: 4924
  stamp: 
    secs: 290
    nsecs: 541307770
  frame_id: "/map"
pose: 
  position: 
    x: 143.413970947
    y: -197.724594116
    z: 0.242207765579
  orientation: 
    x: -0.000212456448075
    y: -3.49012898352e-05
    z: 0.426931510379
    w: 0.904283937206
---
header: 
  seq: 4925
  stamp: 
    secs: 290
    nsecs: 591307771
  frame_id: "/map"
pose: 
  position: 
    x: 143.366516113
    y: -197.737182617
    z: 0.242652416229
  orientation: 
    x: -0.000193014493605
    y: -6.06439944279e-05
    z: 0.427187190834
    w: 0.904163183864
---
header: 
  seq: 4926
  stamp: 
    secs: 290
    nsecs: 641307772
  frame_id: "/map"
pose: 
  position: 
    x: 143.411376953
    y: -197.692062378
    z: 0.240268230438
  orientation: 
    x: -0.000285757080774
    y: -0.000100441650156
    z: 0.427089295965
    w: 0.90420940137
---
header: 
  seq: 4927
  stamp: 
    secs: 290
    nsecs: 691307773
  frame_id: "/map"
pose: 
  position: 
    x: 143.405593872
    y: -197.706451416
    z: 0.24019575119
  orientation: 
    x: -0.00020978606468
    y: -4.73255833581e-05
    z: 0.427132955938
    w: 0.904188803128
---
header: 
  seq: 4928
  stamp: 
    secs: 290
    nsecs: 741307773
  frame_id: "/map"
pose: 
  position: 
    x: 143.388778687
    y: -197.736038208
    z: 0.241478681564
  orientation: 
    x: -0.000150841870562
    y: -3.11708956844e-05
    z: 0.426897830586
    w: 0.904299849893
---
header: 
  seq: 4929
  stamp: 
    secs: 290
    nsecs: 791307774
  frame_id: "/map"
pose: 
  position: 
    x: 143.403991699
    y: -197.722167969
    z: 0.242813825607
  orientation: 
    x: -0.000252678415745
    y: -0.000117276164078
    z: 0.42698033259
    w: 0.904260868323
---
header: 
  seq: 4930
  stamp: 
    secs: 290
    nsecs: 841307775
  frame_id: "/map"
pose: 
  position: 
    x: 143.393737793
    y: -197.727386475
    z: 0.243725776672
  orientation: 
    x: -0.000115869196888
    y: -5.25367884283e-05
    z: 0.427109978065
    w: 0.904199673995
---
header: 
  seq: 4931
  stamp: 
    secs: 290
    nsecs: 891307776
  frame_id: "/map"
pose: 
  position: 
    x: 143.394973755
    y: -197.740158081
    z: 0.241651058197
  orientation: 
    x: -0.000162729074496
    y: -5.94512931522e-05
    z: 0.426810346447
    w: 0.904341140362
---
header: 
  seq: 4932
  stamp: 
    secs: 290
    nsecs: 941307776
  frame_id: "/map"
pose: 
  position: 
    x: 143.417892456
    y: -197.797134399
    z: 0.238839626312
  orientation: 
    x: -0.000209969133838
    y: -0.000101545241224
    z: 0.427202266512
    w: 0.904156053504
---
header: 
  seq: 4933
  stamp: 
    secs: 290
    nsecs: 991307777
  frame_id: "/map"
pose: 
  position: 
    x: 143.406784058
    y: -197.795791626
    z: 0.242092847824
  orientation: 
    x: -0.000213836387002
    y: -6.82204677714e-06
    z: 0.42696436762
    w: 0.904268424203
---
header: 
  seq: 4934
  stamp: 
    secs: 291
    nsecs:  41307778
  frame_id: "/map"
pose: 
  position: 
    x: 143.395828247
    y: -197.791473389
    z: 0.240255594254
  orientation: 
    x: -0.000264798602916
    y: -9.84525999924e-05
    z: 0.426638607727
    w: 0.904422146227
---
header: 
  seq: 1337
  stamp: 
    secs: 2805
    nsecs: 541345247
  frame_id: "/map"
pose: 
  position: 
    x: 149.235305786
    y: -306.517791748
    z: 0.254508256912
  orientation: 
    x: -3.71691832919e-05
    y: -3.25150848503e-05
    z: -0.000112812120593
    w: 0.999999992417
---
header: 
  seq: 1338
  stamp: 
    secs: 2805
    nsecs: 591345248
  frame_id: "/map"
pose: 
  position: 
    x: 149.509338379
    y: -306.508392334
    z: 0.249866485596
  orientation: 
    x: 0.000275892282389
    y: -5.18214805077e-05
    z: 3.3169594856e-05
    w: 0.999999960049
---
header: 
  seq: 1339
  stamp: 
    secs: 2805
    nsecs: 641345248
  frame_id: "/map"
pose: 
  position: 
    x: 149.789535522
    y: -306.509124756
    z: 0.248316287994
  orientation: 
    x: 0.000440570010692
    y: -0.000117230680642
    z: 8.11892060834e-06
    w: 0.999999896045
---
header: 
  seq: 1340
  stamp: 
    secs: 2805
    nsecs: 691345249
  frame_id: "/map"
pose: 
  position: 
    x: 150.088439941
    y: -306.512512207
    z: 0.250367164612
  orientation: 
    x: 6.86721480612e-05
    y: -2.73833110458e-05
    z: 0.000219743407069
    w: 0.999999973124
---
header: 
  seq: 1341
  stamp: 
    secs: 2805
    nsecs: 741345250
  frame_id: "/map"
pose: 
  position: 
    x: 150.360321045
    y: -306.514160156
    z: 0.250370264053
  orientation: 
    x: 0.000198556821718
    y: -3.46444675539e-05
    z: -0.00015341872831
    w: 0.999999967919
---
header: 
  seq: 1342
  stamp: 
    secs: 2805
    nsecs: 791345251
  frame_id: "/map"
pose: 
  position: 
    x: 150.629241943
    y: -306.514129639
    z: 0.251360177994
  orientation: 
    x: 5.85372654884e-05
    y: -4.46802612077e-05
    z: 0.000112203896825
    w: 0.999999990994
---
header: 
  seq: 1343
  stamp: 
    secs: 2805
    nsecs: 841345251
  frame_id: "/map"
pose: 
  position: 
    x: 150.911178589
    y: -306.502624512
    z: 0.251380681992
  orientation: 
    x: 0.000152411733801
    y: 2.82331494524e-05
    z: -0.000271606521832
    w: 0.999999951102
---
header: 
  seq: 1344
  stamp: 
    secs: 2805
    nsecs: 891345252
  frame_id: "/map"
pose: 
  position: 
    x: 151.21975708
    y: -306.508483887
    z: 0.252497196198
  orientation: 
    x: 0.000177415205698
    y: 9.74369413641e-06
    z: 8.67626183275e-05
    w: 0.999999980451
---
header: 
  seq: 1345
  stamp: 
    secs: 2805
    nsecs: 941345253
  frame_id: "/map"
pose: 
  position: 
    x: 151.480438232
    y: -306.510894775
    z: 0.254300832748
  orientation: 
    x: 0.000117404156404
    y: 2.7115260452e-05
    z: -0.000305897435387
    w: 0.999999945954
---
header: 
  seq: 1346
  stamp: 
    secs: 2805
    nsecs: 991345254
  frame_id: "/map"
pose: 
  position: 
    x: 151.76789856
    y: -306.51071167
    z: 0.253969430923
  orientation: 
    x: 0.000112920463685
    y: 1.76173498802e-05
    z: -7.25300007305e-05
    w: 0.999999990839
---
header: 
  seq: 1347
  stamp: 
    secs: 2806
    nsecs:  41345254
  frame_id: "/map"
pose: 
  position: 
    x: 152.066116333
    y: -306.504241943
    z: 0.254091501236
  orientation: 
    x: -7.08437128226e-05
    y: -1.05674422848e-05
    z: 8.7588756271e-05
    w: 0.999999993599
---
header: 
  seq: 1348
  stamp: 
    secs: 2806
    nsecs:  91345255
  frame_id: "/map"
pose: 
  position: 
    x: 152.354614258
    y: -306.512298584
    z: 0.24996304512
  orientation: 
    x: 0.000159760452307
    y: -4.20082850513e-05
    z: 0.000565359200601
    w: 0.99999982654
---
header: 
  seq: 1349
  stamp: 
    secs: 2806
    nsecs: 141345256
  frame_id: "/map"
pose: 
  position: 
    x: 152.626052856
    y: -306.509124756
    z: 0.253745794296
  orientation: 
    x: 8.81992854908e-06
    y: 2.74268572308e-05
    z: 9.79912477812e-05
    w: 0.999999994784
---
header: 
  seq: 1350
  stamp: 
    secs: 2806
    nsecs: 191345257
  frame_id: "/map"
pose: 
  position: 
    x: 152.8934021
    y: -306.517364502
    z: 0.252239942551
  orientation: 
    x: 0.000138022105978
    y: 4.18095550395e-05
    z: 0.000267202322628
    w: 0.999999953902
---
header: 
  seq: 1351
  stamp: 
    secs: 2806
    nsecs: 241345257
  frame_id: "/map"
pose: 
  position: 
    x: 153.184677124
    y: -306.504089355
    z: 0.251536846161
  orientation: 
    x: 0.000121809360448
    y: 1.82300855595e-05
    z: 4.8539036116e-05
    w: 0.999999991237
---
header: 
  seq: 1352
  stamp: 
    secs: 2806
    nsecs: 291345258
  frame_id: "/map"
pose: 
  position: 
    x: 153.459701538
    y: -306.506164551
    z: 0.248383283615
  orientation: 
    x: 0.000337605542146
    y: 1.82713098648e-05
    z: 0.000365486841162
    w: 0.999999876054
---
header: 
  seq: 1353
  stamp: 
    secs: 2806
    nsecs: 341345259
  frame_id: "/map"
pose: 
  position: 
    x: 153.749694824
    y: -306.508178711
    z: 0.250567436218
  orientation: 
    x: 0.000212456657816
    y: 5.68486570023e-05
    z: 7.02304469379e-05
    w: 0.999999973349
---
header: 
  seq: 1354
  stamp: 
    secs: 2806
    nsecs: 391345259
  frame_id: "/map"
pose: 
  position: 
    x: 154.038040161
    y: -306.518768311
    z: 0.252372264862
  orientation: 
    x: 2.56470930026e-05
    y: 3.32658451634e-05
    z: 0.000368131931952
    w: 0.999999931357
---
header: 
  seq: 1355
  stamp: 
    secs: 2806
    nsecs: 441345260
  frame_id: "/map"
pose: 
  position: 
    x: 154.319244385
    y: -306.506958008
    z: 0.248323917389
  orientation: 
    x: 0.000269021903184
    y: -1.23858666445e-05
    z: -0.000367767618957
    w: 0.99999989611
---
header: 
  seq: 1356
  stamp: 
    secs: 2806
    nsecs: 491345261
  frame_id: "/map"
pose: 
  position: 
    x: 154.586212158
    y: -306.519287109
    z: 0.253242015839
  orientation: 
    x: 4.01119173747e-05
    y: 9.14303247461e-06
    z: 0.000290681693167
    w: 0.999999956906
---
header: 
  seq: 1357
  stamp: 
    secs: 2806
    nsecs: 541345262
  frame_id: "/map"
pose: 
  position: 
    x: 154.851989746
    y: -306.5262146
    z: 0.249968767166
  orientation: 
    x: 0.000236125592237
    y: 8.07944844819e-06
    z: -0.00011968437542
    w: 0.999999964928
---
header: 
  seq: 1358
  stamp: 
    secs: 2806
    nsecs: 591345262
  frame_id: "/map"
pose: 
  position: 
    x: 155.152099609
    y: -306.513519287
    z: 0.252281427383
  orientation: 
    x: 0.000142418626362
    y: -2.62249407251e-06
    z: 0.000358277364941
    w: 0.999999925674
---
header: 
  seq: 1359
  stamp: 
    secs: 2806
    nsecs: 641345263
  frame_id: "/map"
pose: 
  position: 
    x: 155.414520264
    y: -306.509124756
    z: 0.250490188599
  orientation: 
    x: 0.000256630715129
    y: 3.02430767207e-05
    z: 0.00013185426705
    w: 0.99999995792
---
header: 
  seq: 1360
  stamp: 
    secs: 2806
    nsecs: 691345264
  frame_id: "/map"
pose: 
  position: 
    x: 155.700820923
    y: -306.514709473
    z: 0.249020576477
  orientation: 
    x: 0.000266735523755
    y: 0.00010720657959
    z: 0.000231945811791
    w: 0.99999993178
---
header: 
  seq: 1361
  stamp: 
    secs: 2806
    nsecs: 741345265
  frame_id: "/map"
pose: 
  position: 
    x: 155.99269104
    y: -306.518463135
    z: 0.251311302185
  orientation: 
    x: 0.000143306905778
    y: 4.49391041082e-05
    z: 8.96044135328e-05
    w: 0.999999984707
---
header: 
  seq: 1362
  stamp: 
    secs: 2806
    nsecs: 791345265
  frame_id: "/map"
pose: 
  position: 
    x: 156.283279419
    y: -306.507446289
    z: 0.250091791153
  orientation: 
    x: 0.000168451873155
    y: -1.15062800631e-05
    z: 0.000348650484734
    w: 0.999999924967
---
header: 
  seq: 1363
  stamp: 
    secs: 2806
    nsecs: 841345266
  frame_id: "/map"
pose: 
  position: 
    x: 156.541763306
    y: -306.507232666
    z: 0.248430967331
  orientation: 
    x: 0.000278121506631
    y: 1.53124453826e-05
    z: 0.000114909198443
    w: 0.999999954605
---
header: 
  seq: 1364
  stamp: 
    secs: 2806
    nsecs: 891345267
  frame_id: "/map"
pose: 
  position: 
    x: 156.800521851
    y: -306.511016846
    z: 0.25218963623
  orientation: 
    x: 9.89457846413e-05
    y: 4.7603350918e-06
    z: 0.000238584649434
    w: 0.999999966632
---
header: 
  seq: 1365
  stamp: 
    secs: 2806
    nsecs: 941345268
  frame_id: "/map"
pose: 
  position: 
    x: 157.094650269
    y: -306.509857178
    z: 0.254944086075
  orientation: 
    x: 1.4313296866e-05
    y: 6.37403150404e-06
    z: 2.37806777174e-05
    w: 0.999999999594
---
header: 
  seq: 1366
  stamp: 
    secs: 2806
    nsecs: 991345268
  frame_id: "/map"
pose: 
  position: 
    x: 157.36680603
    y: -306.514678955
    z: 0.256734132767
  orientation: 
    x: -0.000139421785175
    y: 1.28373496827e-05
    z: 0.000114229979448
    w: 0.999999983674
---
header: 
  seq: 1367
  stamp: 
    secs: 2807
    nsecs:  41345269
  frame_id: "/map"
pose: 
  position: 
    x: 157.645904541
    y: -306.499084473
    z: 0.252850532532
  orientation: 
    x: 5.59639146001e-05
    y: 4.48844207191e-05
    z: 0.000246125998641
    w: 0.999999967138
---
header: 
  seq: 1368
  stamp: 
    secs: 2807
    nsecs:  91345270
  frame_id: "/map"
pose: 
  position: 
    x: 157.93447876
    y: -306.514160156
    z: 0.250943422318
  orientation: 
    x: 0.000149594059537
    y: 1.6016049739e-05
    z: 0.000512549839188
    w: 0.999999857329
---
header: 
  seq: 1369
  stamp: 
    secs: 2807
    nsecs: 141345271
  frame_id: "/map"
pose: 
  position: 
    x: 158.221725464
    y: -306.518493652
    z: 0.254069566727
  orientation: 
    x: -0.000109108304494
    y: 1.96002394569e-05
    z: 0.000415825051044
    w: 0.9999999074
---
header: 
  seq: 1370
  stamp: 
    secs: 2807
    nsecs: 191345271
  frame_id: "/map"
pose: 
  position: 
    x: 158.492767334
    y: -306.529174805
    z: 0.252018451691
  orientation: 
    x: 0.000107460001028
    y: 1.28776157927e-05
    z: 0.000674563037539
    w: 0.999999766626
---
header: 
  seq: 1371
  stamp: 
    secs: 2807
    nsecs: 241345272
  frame_id: "/map"
pose: 
  position: 
    x: 158.754089355
    y: -306.523254395
    z: 0.254297018051
  orientation: 
    x: 6.73296825774e-05
    y: 4.38825392973e-05
    z: 0.00040780953678
    w: 0.999999913616
---
header: 
  seq: 1372
  stamp: 
    secs: 2807
    nsecs: 291345273
  frame_id: "/map"
pose: 
  position: 
    x: 159.027008057
    y: -306.510925293
    z: 0.251449346542
  orientation: 
    x: 0.000181408617464
    y: 4.10112167565e-05
    z: 0.000500445322541
    w: 0.999999857482
---
header: 
  seq: 1373
  stamp: 
    secs: 2807
    nsecs: 341345274
  frame_id: "/map"
pose: 
  position: 
    x: 159.311798096
    y: -306.520202637
    z: 0.252035140991
  orientation: 
    x: 0.000143960443978
    y: 4.22708756902e-05
    z: 0.000271009807045
    w: 0.999999952021
---
header: 
  seq: 1374
  stamp: 
    secs: 2807
    nsecs: 391345274
  frame_id: "/map"
pose: 
  position: 
    x: 159.578643799
    y: -306.514129639
    z: 0.250947475433
  orientation: 
    x: 0.000117772043
    y: 8.40688628378e-06
    z: 0.000514495668621
    w: 0.999999860677
---
header: 
  seq: 1375
  stamp: 
    secs: 2807
    nsecs: 441345275
  frame_id: "/map"
pose: 
  position: 
    x: 159.850921631
    y: -306.527740479
    z: 0.252225875854
  orientation: 
    x: 6.69241667494e-05
    y: -1.79473080128e-06
    z: 4.25415274011e-05
    w: 0.999999996854
---
header: 
  seq: 1376
  stamp: 
    secs: 2807
    nsecs: 491345276
  frame_id: "/map"
pose: 
  position: 
    x: 160.150039673
    y: -306.516265869
    z: 0.252818584442
  orientation: 
    x: 1.70851731339e-05
    y: -5.88764928169e-05
    z: 0.000561387976451
    w: 0.999999840543
---
header: 
  seq: 1377
  stamp: 
    secs: 2807
    nsecs: 541345277
  frame_id: "/map"
pose: 
  position: 
    x: 160.437438965
    y: -306.511810303
    z: 0.249047756195
  orientation: 
    x: 0.00026640979462
    y: 1.00284505691e-05
    z: 0.00047686073245
    w: 0.999999850765
---
header: 
  seq: 1378
  stamp: 
    secs: 2807
    nsecs: 591345277
  frame_id: "/map"
pose: 
  position: 
    x: 160.692779541
    y: -306.519500732
    z: 0.256253004074
  orientation: 
    x: -0.000264264652723
    y: 8.01088153762e-06
    z: 0.000715252234318
    w: 0.999999709257
---
header: 
  seq: 1379
  stamp: 
    secs: 2807
    nsecs: 641345278
  frame_id: "/map"
pose: 
  position: 
    x: 160.967498779
    y: -306.519256592
    z: 0.256081104279
  orientation: 
    x: -0.000282364224792
    y: -1.52078963218e-06
    z: 0.000679449651908
    w: 0.999999729308
---
header: 
  seq: 1380
  stamp: 
    secs: 2807
    nsecs: 691345279
  frame_id: "/map"
pose: 
  position: 
    x: 161.254699707
    y: -306.517730713
    z: 0.251316070557
  orientation: 
    x: 0.000209833248394
    y: -2.017998319e-05
    z: 0.000936579351131
    w: 0.999999539191
---
header: 
  seq: 1381
  stamp: 
    secs: 2807
    nsecs: 741345280
  frame_id: "/map"
pose: 
  position: 
    x: 161.511428833
    y: -306.51574707
    z: 0.252487897873
  orientation: 
    x: 0.000102577816935
    y: 3.17885242577e-05
    z: 0.000661718002507
    w: 0.999999775298
---
header: 
  seq: 1382
  stamp: 
    secs: 2807
    nsecs: 791345280
  frame_id: "/map"
pose: 
  position: 
    x: 161.776260376
    y: -306.51348877
    z: 0.25443983078
  orientation: 
    x: -0.000144980020875
    y: 1.0127453127e-05
    z: 0.000929076184609
    w: 0.999999557848
---
header: 
  seq: 1383
  stamp: 
    secs: 2807
    nsecs: 841345281
  frame_id: "/map"
pose: 
  position: 
    x: 162.070755005
    y: -306.517547607
    z: 0.250296354294
  orientation: 
    x: 0.000212480871978
    y: 1.26074101478e-05
    z: 0.000490743616879
    w: 0.999999856932
---
header: 
  seq: 1384
  stamp: 
    secs: 2807
    nsecs: 891345282
  frame_id: "/map"
pose: 
  position: 
    x: 162.345245361
    y: -306.511352539
    z: 0.252044677734
  orientation: 
    x: 0.000586746275045
    y: 9.01460323975e-06
    z: -4.67183856908e-05
    w: 0.999999826732
---
header: 
  seq: 1385
  stamp: 
    secs: 2807
    nsecs: 941345283
  frame_id: "/map"
pose: 
  position: 
    x: 162.615951538
    y: -306.520233154
    z: 0.251633167267
  orientation: 
    x: 6.57538047904e-05
    y: -6.68758357102e-07
    z: 0.000511291555716
    w: 0.999999867128
---
header: 
  seq: 1386
  stamp: 
    secs: 2807
    nsecs: 991345283
  frame_id: "/map"
pose: 
  position: 
    x: 162.881744385
    y: -306.523162842
    z: 0.253444433212
  orientation: 
    x: 5.37741295657e-05
    y: -4.23018264981e-05
    z: 0.00060282926012
    w: 0.999999815958
---
header: 
  seq: 1387
  stamp: 
    secs: 2808
    nsecs:  41345284
  frame_id: "/map"
pose: 
  position: 
    x: 163.160263062
    y: -306.519500732
    z: 0.255693912506
  orientation: 
    x: 7.38770412968e-05
    y: -0.00015119285756
    z: 0.00070826135393
    w: 0.999999735024
---
header: 
  seq: 1388
  stamp: 
    secs: 2808
    nsecs:  91345285
  frame_id: "/map"
pose: 
  position: 
    x: 163.447937012
    y: -306.513946533
    z: 0.25080871582
  orientation: 
    x: 0.000185390200289
    y: 4.21165242569e-05
    z: 0.000737321871825
    w: 0.999999710107
---
header: 
  seq: 1389
  stamp: 
    secs: 2808
    nsecs: 141345286
  frame_id: "/map"
pose: 
  position: 
    x: 163.723968506
    y: -306.513916016
    z: 0.25028181076
  orientation: 
    x: 0.000200726556196
    y: 4.49199534173e-05
    z: 0.000494261166214
    w: 0.999999856698
---
header: 
  seq: 1390
  stamp: 
    secs: 2808
    nsecs: 191345286
  frame_id: "/map"
pose: 
  position: 
    x: 163.996261597
    y: -306.510925293
    z: 0.250485897064
  orientation: 
    x: 0.000168704595008
    y: 4.22433673082e-05
    z: 0.000861185679879
    w: 0.999999614057
---
header: 
  seq: 1391
  stamp: 
    secs: 2808
    nsecs: 241345287
  frame_id: "/map"
pose: 
  position: 
    x: 164.280670166
    y: -306.521179199
    z: 0.250965118408
  orientation: 
    x: 1.71523634231e-05
    y: 5.45119728132e-05
    z: 0.00043957656692
    w: 0.999999901753
---
header: 
  seq: 1392
  stamp: 
    secs: 2808
    nsecs: 291345288
  frame_id: "/map"
pose: 
  position: 
    x: 164.54258728
    y: -306.516143799
    z: 0.249559402466
  orientation: 
    x: 0.000107108774796
    y: 2.58579374385e-05
    z: 0.00056421571592
    w: 0.99999983476
---
header: 
  seq: 1393
  stamp: 
    secs: 2808
    nsecs: 341345289
  frame_id: "/map"
pose: 
  position: 
    x: 164.808242798
    y: -306.505157471
    z: 0.249920368195
  orientation: 
    x: 0.000120706824177
    y: 5.86321749358e-05
    z: 0.000653049420899
    w: 0.999999777759
---
header: 
  seq: 1394
  stamp: 
    secs: 2808
    nsecs: 391345289
  frame_id: "/map"
pose: 
  position: 
    x: 165.095458984
    y: -306.520324707
    z: 0.251161336899
  orientation: 
    x: 6.43191858477e-05
    y: 2.90351005254e-05
    z: 0.000769306436959
    w: 0.999999701594
---
header: 
  seq: 1395
  stamp: 
    secs: 2808
    nsecs: 441345290
  frame_id: "/map"
pose: 
  position: 
    x: 165.38319397
    y: -306.519989014
    z: 0.250705957413
  orientation: 
    x: 4.7953642384e-05
    y: 4.21005150093e-05
    z: 0.000440643736994
    w: 0.999999900881
---
header: 
  seq: 1396
  stamp: 
    secs: 2808
    nsecs: 491345291
  frame_id: "/map"
pose: 
  position: 
    x: 165.650512695
    y: -306.509216309
    z: 0.251392126083
  orientation: 
    x: 6.00714932085e-06
    y: 3.82741788192e-05
    z: 0.000667870487469
    w: 0.999999776224
---
header: 
  seq: 1397
  stamp: 
    secs: 2808
    nsecs: 541345292
  frame_id: "/map"
pose: 
  position: 
    x: 165.942474365
    y: -306.515960693
    z: 0.252241134644
  orientation: 
    x: -3.0521343823e-05
    y: 2.54070815319e-05
    z: 0.000589098274223
    w: 0.999999825693
---
header: 
  seq: 1398
  stamp: 
    secs: 2808
    nsecs: 591345292
  frame_id: "/map"
pose: 
  position: 
    x: 166.235031128
    y: -306.519744873
    z: 0.250828504562
  orientation: 
    x: 7.1589774481e-05
    y: 2.27801879178e-05
    z: 0.000898080597049
    w: 0.999999593904
---
header: 
  seq: 1399
  stamp: 
    secs: 2808
    nsecs: 641345293
  frame_id: "/map"
pose: 
  position: 
    x: 166.494522095
    y: -306.510925293
    z: 0.247932434082
  orientation: 
    x: 0.000203636575824
    y: 3.35933940685e-05
    z: 0.000522809963553
    w: 0.999999842037
---
header: 
  seq: 1400
  stamp: 
    secs: 2808
    nsecs: 691345294
  frame_id: "/map"
pose: 
  position: 
    x: 166.740814209
    y: -306.514709473
    z: 0.250886917114
  orientation: 
    x: 7.37232030671e-05
    y: 4.64476599133e-05
    z: 0.000624084857402
    w: 0.999999801463
---
header: 
  seq: 1401
  stamp: 
    secs: 2808
    nsecs: 741345294
  frame_id: "/map"
pose: 
  position: 
    x: 167.030548096
    y: -306.520996094
    z: 0.250209331512
  orientation: 
    x: 0.000173775814507
    y: 1.99553989024e-06
    z: 0.00068495720398
    w: 0.999999750316
---
header: 
  seq: 1402
  stamp: 
    secs: 2808
    nsecs: 791345295
  frame_id: "/map"
pose: 
  position: 
    x: 167.300079346
    y: -306.525421143
    z: 0.251474380493
  orientation: 
    x: 5.690032763e-05
    y: 5.45803647095e-06
    z: 0.000841500412915
    w: 0.999999644305
---
header: 
  seq: 1403
  stamp: 
    secs: 2808
    nsecs: 841345296
  frame_id: "/map"
pose: 
  position: 
    x: 167.587341309
    y: -306.512786865
    z: 0.251332521439
  orientation: 
    x: 8.8540524314e-05
    y: 3.27710794387e-05
    z: 0.000591018535038
    w: 0.999999820892
---
header: 
  seq: 1404
  stamp: 
    secs: 2808
    nsecs: 891345297
  frame_id: "/map"
pose: 
  position: 
    x: 167.857818604
    y: -306.52041626
    z: 0.251233100891
  orientation: 
    x: 0.000163384762377
    y: -2.696574137e-06
    z: 0.000806787772827
    w: 0.999999661196
---
header: 
  seq: 1405
  stamp: 
    secs: 2808
    nsecs: 941345297
  frame_id: "/map"
pose: 
  position: 
    x: 168.156311035
    y: -306.509338379
    z: 0.250537157059
  orientation: 
    x: -2.54284512184e-05
    y: 3.01176045221e-05
    z: 0.000495503369738
    w: 0.999999876461
---
header: 
  seq: 1406
  stamp: 
    secs: 2808
    nsecs: 991345298
  frame_id: "/map"
pose: 
  position: 
    x: 168.42276001
    y: -306.512939453
    z: 0.250767707825
  orientation: 
    x: 2.30561464669e-05
    y: 6.8534860962e-06
    z: 0.000734881591388
    w: 0.999999729685
---
header: 
  seq: 1407
  stamp: 
    secs: 2809
    nsecs:  41345299
  frame_id: "/map"
pose: 
  position: 
    x: 168.687225342
    y: -306.513702393
    z: 0.250469446182
  orientation: 
    x: 3.11712296169e-05
    y: 3.60969347151e-05
    z: 0.000348523491834
    w: 0.999999938128
---
header: 
  seq: 1408
  stamp: 
    secs: 2809
    nsecs:  91345300
  frame_id: "/map"
pose: 
  position: 
    x: 168.953140259
    y: -306.517303467
    z: 0.253118038177
  orientation: 
    x: -8.10458806241e-05
    y: -7.05121483846e-06
    z: 0.000778286835162
    w: 0.999999693826
---
header: 
  seq: 1409
  stamp: 
    secs: 2809
    nsecs: 141345300
  frame_id: "/map"
pose: 
  position: 
    x: 169.258163452
    y: -306.517150879
    z: 0.249565124512
  orientation: 
    x: 7.37228853213e-05
    y: 1.69374068295e-05
    z: 0.000461535897387
    w: 0.999999890631
---
header: 
  seq: 1410
  stamp: 
    secs: 2809
    nsecs: 191345301
  frame_id: "/map"
pose: 
  position: 
    x: 169.516525269
    y: -306.515838623
    z: 0.254287958145
  orientation: 
    x: -3.30161283415e-05
    y: -1.21295630694e-05
    z: 0.00075591167554
    w: 0.99999971368
---
header: 
  seq: 1411
  stamp: 
    secs: 2809
    nsecs: 241345302
  frame_id: "/map"
pose: 
  position: 
    x: 169.775482178
    y: -306.52166748
    z: 0.25278878212
  orientation: 
    x: -0.000222639769757
    y: -1.047218168e-06
    z: 0.000454382332239
    w: 0.999999871984
---
header: 
  seq: 1412
  stamp: 
    secs: 2809
    nsecs: 291345303
  frame_id: "/map"
pose: 
  position: 
    x: 170.086669922
    y: -306.524658203
    z: 0.250948667526
  orientation: 
    x: -5.96342172635e-05
    y: -7.77437965014e-05
    z: 0.000942310179727
    w: 0.999999551225
---
header: 
  seq: 1413
  stamp: 
    secs: 2809
    nsecs: 341345303
  frame_id: "/map"
pose: 
  position: 
    x: 170.379806519
    y: -306.513122559
    z: 0.250453472137
  orientation: 
    x: 7.81891068899e-05
    y: -7.23767573697e-05
    z: 0.000772665202109
    w: 0.999999695818
---
header: 
  seq: 1414
  stamp: 
    secs: 2809
    nsecs: 391345304
  frame_id: "/map"
pose: 
  position: 
    x: 170.637771606
    y: -306.516143799
    z: 0.252076148987
  orientation: 
    x: 1.18090975266e-05
    y: -9.91717896299e-05
    z: 0.000841582789431
    w: 0.999999640882
---
header: 
  seq: 1415
  stamp: 
    secs: 2809
    nsecs: 441345305
  frame_id: "/map"
pose: 
  position: 
    x: 170.903503418
    y: -306.515716553
    z: 0.251183271408
  orientation: 
    x: 4.30768614764e-05
    y: -8.70008572512e-05
    z: 0.00074683979895
    w: 0.999999716403
---
header: 
  seq: 1416
  stamp: 
    secs: 2809
    nsecs: 491345306
  frame_id: "/map"
pose: 
  position: 
    x: 171.211105347
    y: -306.508239746
    z: 0.247747898102
  orientation: 
    x: 0.000243686391754
    y: -7.75806333451e-05
    z: 0.00134560317586
    w: 0.999999061975
---
header: 
  seq: 1417
  stamp: 
    secs: 2809
    nsecs: 541345306
  frame_id: "/map"
pose: 
  position: 
    x: 171.479476929
    y: -306.498748779
    z: 0.249990224838
  orientation: 
    x: 1.55143064337e-05
    y: -8.11376228904e-05
    z: 0.0014036903731
    w: 0.999999011414
---
header: 
  seq: 1418
  stamp: 
    secs: 2809
    nsecs: 591345307
  frame_id: "/map"
pose: 
  position: 
    x: 171.775054932
    y: -306.504486084
    z: 0.249744415283
  orientation: 
    x: 0.000156494840667
    y: -8.91970419022e-05
    z: 0.00200240417221
    w: 0.999997978963
---
header: 
  seq: 1419
  stamp: 
    secs: 2809
    nsecs: 641345308
  frame_id: "/map"
pose: 
  position: 
    x: 172.066055298
    y: -306.505462646
    z: 0.25012588501
  orientation: 
    x: 0.000110780419513
    y: -4.44081426852e-05
    z: 0.00223664596418
    w: 0.999997491582
---
header: 
  seq: 1420
  stamp: 
    secs: 2809
    nsecs: 691345309
  frame_id: "/map"
pose: 
  position: 
    x: 172.339401245
    y: -306.497375488
    z: 0.252942323685
  orientation: 
    x: -9.91885440648e-05
    y: -6.97013250174e-05
    z: 0.00250360527435
    w: 0.999996858627
---
header: 
  seq: 1421
  stamp: 
    secs: 2809
    nsecs: 741345309
  frame_id: "/map"
pose: 
  position: 
    x: 172.604354858
    y: -306.502197266
    z: 0.25235581398
  orientation: 
    x: 5.93818472869e-05
    y: -1.21346929315e-05
    z: 0.00232787251027
    w: 0.999997288664
---
header: 
  seq: 1422
  stamp: 
    secs: 2809
    nsecs: 791345310
  frame_id: "/map"
pose: 
  position: 
    x: 172.877075195
    y: -306.498321533
    z: 0.252086639404
  orientation: 
    x: 8.9338457273e-05
    y: -1.83036448612e-06
    z: 0.00304252597027
    w: 0.999995367515
---
header: 
  seq: 1423
  stamp: 
    secs: 2809
    nsecs: 841345311
  frame_id: "/map"
pose: 
  position: 
    x: 173.177124023
    y: -306.486114502
    z: 0.249025344849
  orientation: 
    x: 0.000316472806019
    y: 4.1132142448e-06
    z: 0.00350432668938
    w: 0.999993809742
---
header: 
  seq: 1424
  stamp: 
    secs: 2809
    nsecs: 891345312
  frame_id: "/map"
pose: 
  position: 
    x: 173.45501709
    y: -306.495391846
    z: 0.250280857086
  orientation: 
    x: 0.000206054603107
    y: 2.10508676398e-06
    z: 0.00417370469608
    w: 0.999991268825
---
header: 
  seq: 1425
  stamp: 
    secs: 2809
    nsecs: 941345312
  frame_id: "/map"
pose: 
  position: 
    x: 173.727905273
    y: -306.500762939
    z: 0.248153686523
  orientation: 
    x: 0.000376441494605
    y: 5.54323679205e-05
    z: 0.00476934257952
    w: 0.99998855423
---
header: 
  seq: 1426
  stamp: 
    secs: 2809
    nsecs: 991345313
  frame_id: "/map"
pose: 
  position: 
    x: 174.00201416
    y: -306.493347168
    z: 0.249763011932
  orientation: 
    x: 0.00023022904112
    y: -3.22548524202e-05
    z: 0.00531120524807
    w: 0.999985868427
---
header: 
  seq: 1427
  stamp: 
    secs: 2810
    nsecs:  41345314
  frame_id: "/map"
pose: 
  position: 
    x: 174.297744751
    y: -306.483123779
    z: 0.250355482101
  orientation: 
    x: 0.000295222887363
    y: -2.34735693728e-05
    z: 0.00558839219506
    w: 0.99998434096
---
header: 
  seq: 1428
  stamp: 
    secs: 2810
    nsecs:  91345315
  frame_id: "/map"
pose: 
  position: 
    x: 174.562301636
    y: -306.479064941
    z: 0.250331401825
  orientation: 
    x: 0.000266421793776
    y: -1.84891085058e-05
    z: 0.00669162685462
    w: 0.999977575152
---
header: 
  seq: 1429
  stamp: 
    secs: 2810
    nsecs: 141345315
  frame_id: "/map"
pose: 
  position: 
    x: 174.847061157
    y: -306.464263916
    z: 0.251325368881
  orientation: 
    x: 0.000285653319043
    y: 1.48933571613e-05
    z: 0.0072639419302
    w: 0.999973576315
---
header: 
  seq: 1430
  stamp: 
    secs: 2810
    nsecs: 191345316
  frame_id: "/map"
pose: 
  position: 
    x: 175.1484375
    y: -306.467346191
    z: 0.248248100281
  orientation: 
    x: 0.000319678489388
    y: 2.74068210186e-05
    z: 0.00808317342839
    w: 0.999967279146
---
header: 
  seq: 1431
  stamp: 
    secs: 2810
    nsecs: 241345317
  frame_id: "/map"
pose: 
  position: 
    x: 175.434844971
    y: -306.461883545
    z: 0.250840187073
  orientation: 
    x: 0.000274923282418
    y: -2.6344461177e-05
    z: 0.00938825469976
    w: 0.999955891226
---
header: 
  seq: 1432
  stamp: 
    secs: 2810
    nsecs: 291345318
  frame_id: "/map"
pose: 
  position: 
    x: 175.694061279
    y: -306.457611084
    z: 0.24923491478
  orientation: 
    x: 0.0004407972869
    y: -2.72992607657e-05
    z: 0.0105908084982
    w: 0.999943818286
---
header: 
  seq: 1433
  stamp: 
    secs: 2810
    nsecs: 341345318
  frame_id: "/map"
pose: 
  position: 
    x: 175.98866272
    y: -306.444915771
    z: 0.249603748322
  orientation: 
    x: 0.00029123053158
    y: -3.41263928995e-05
    z: 0.0116219174539
    w: 0.999932420244
---
header: 
  seq: 1434
  stamp: 
    secs: 2810
    nsecs: 391345319
  frame_id: "/map"
pose: 
  position: 
    x: 176.270980835
    y: -306.44152832
    z: 0.249641418457
  orientation: 
    x: 0.000228799640771
    y: -3.30947631198e-05
    z: 0.0131290551648
    w: 0.999913783516
---
header: 
  seq: 1435
  stamp: 
    secs: 2810
    nsecs: 441345320
  frame_id: "/map"
pose: 
  position: 
    x: 176.532226562
    y: -306.43359375
    z: 0.250678300858
  orientation: 
    x: 0.000415930199276
    y: -5.74855470212e-05
    z: 0.0143454230111
    w: 0.999897010965
---
header: 
  seq: 1436
  stamp: 
    secs: 2810
    nsecs: 491345321
  frame_id: "/map"
pose: 
  position: 
    x: 176.801239014
    y: -306.410430908
    z: 0.250939846039
  orientation: 
    x: 0.00047587020786
    y: 9.81539527162e-06
    z: 0.0164062197419
    w: 0.99986529563
---
header: 
  seq: 1437
  stamp: 
    secs: 2810
    nsecs: 541345321
  frame_id: "/map"
pose: 
  position: 
    x: 177.088790894
    y: -306.39050293
    z: 0.249942064285
  orientation: 
    x: 0.000418853244848
    y: 1.15938555013e-05
    z: 0.0187202849014
    w: 0.99982467231
---
header: 
  seq: 1438
  stamp: 
    secs: 2810
    nsecs: 591345322
  frame_id: "/map"
pose: 
  position: 
    x: 177.374313354
    y: -306.373077393
    z: 0.251231431961
  orientation: 
    x: 0.000394786896673
    y: -1.45883084286e-05
    z: 0.0216023209001
    w: 0.999766564585
---
header: 
  seq: 1439
  stamp: 
    secs: 2810
    nsecs: 641345323
  frame_id: "/map"
pose: 
  position: 
    x: 177.660125732
    y: -306.3565979
    z: 0.250336170197
  orientation: 
    x: 0.000535567654869
    y: -1.61974525484e-06
    z: 0.0241907556994
    w: 0.999707217391
---
header: 
  seq: 1440
  stamp: 
    secs: 2810
    nsecs: 691345324
  frame_id: "/map"
pose: 
  position: 
    x: 177.931411743
    y: -306.335418701
    z: 0.251475572586
  orientation: 
    x: 0.000493903888732
    y: -4.87343108075e-05
    z: 0.0271566303625
    w: 0.9996310675
---
header: 
  seq: 1441
  stamp: 
    secs: 2810
    nsecs: 741345324
  frame_id: "/map"
pose: 
  position: 
    x: 178.200775146
    y: -306.319854736
    z: 0.250754117966
  orientation: 
    x: 0.000375957300029
    y: -3.9819477584e-05
    z: 0.0294404223321
    w: 0.999566465326
---
header: 
  seq: 1442
  stamp: 
    secs: 2810
    nsecs: 791345325
  frame_id: "/map"
pose: 
  position: 
    x: 178.479888916
    y: -306.287445068
    z: 0.25284910202
  orientation: 
    x: 0.000386876919084
    y: 1.31809059951e-05
    z: 0.0323816264889
    w: 0.99947550266
---
header: 
  seq: 1443
  stamp: 
    secs: 2810
    nsecs: 841345326
  frame_id: "/map"
pose: 
  position: 
    x: 178.773178101
    y: -306.254333496
    z: 0.250301122665
  orientation: 
    x: 0.00056527116448
    y: -8.33466649481e-06
    z: 0.0346935779707
    w: 0.999397836723
---
header: 
  seq: 1444
  stamp: 
    secs: 2810
    nsecs: 891345327
  frame_id: "/map"
pose: 
  position: 
    x: 179.041503906
    y: -306.225311279
    z: 0.250556468964
  orientation: 
    x: 0.000529825899675
    y: -1.4550633263e-05
    z: 0.0383599640365
    w: 0.999263845154
---
header: 
  seq: 1445
  stamp: 
    secs: 2810
    nsecs: 941345327
  frame_id: "/map"
pose: 
  position: 
    x: 179.330810547
    y: -306.203582764
    z: 0.250705480576
  orientation: 
    x: 0.00044569698131
    y: -3.71942698947e-06
    z: 0.0417223453715
    w: 0.999129144424
---
header: 
  seq: 1446
  stamp: 
    secs: 2810
    nsecs: 991345328
  frame_id: "/map"
pose: 
  position: 
    x: 179.59602356
    y: -306.177398682
    z: 0.252763271332
  orientation: 
    x: 0.000417438550021
    y: 3.67758068259e-05
    z: 0.0453322863258
    w: 0.998971875585
---
header: 
  seq: 1447
  stamp: 
    secs: 2811
    nsecs:  41345329
  frame_id: "/map"
pose: 
  position: 
    x: 179.872924805
    y: -306.133544922
    z: 0.251772403717
  orientation: 
    x: 0.000605156420893
    y: 4.08793714087e-05
    z: 0.0490221315992
    w: 0.998797508371
---
header: 
  seq: 1448
  stamp: 
    secs: 2811
    nsecs:  91345330
  frame_id: "/map"
pose: 
  position: 
    x: 180.143310547
    y: -306.096069336
    z: 0.250820398331
  orientation: 
    x: 0.000547504791635
    y: 3.79352241585e-05
    z: 0.0533613395552
    w: 0.998575117976
---
header: 
  seq: 1449
  stamp: 
    secs: 2811
    nsecs: 141345330
  frame_id: "/map"
pose: 
  position: 
    x: 180.410125732
    y: -306.057556152
    z: 0.251149177551
  orientation: 
    x: 0.000567708676748
    y: 7.91640376364e-05
    z: 0.0574483223477
    w: 0.998348316821
---
header: 
  seq: 1450
  stamp: 
    secs: 2811
    nsecs: 191345331
  frame_id: "/map"
pose: 
  position: 
    x: 180.679748535
    y: -306.006103516
    z: 0.250594854355
  orientation: 
    x: 0.000579474994645
    y: 0.00011014564925
    z: 0.061838389983
    w: 0.998086001105
---
header: 
  seq: 1451
  stamp: 
    secs: 2811
    nsecs: 241345332
  frame_id: "/map"
pose: 
  position: 
    x: 180.943328857
    y: -305.967987061
    z: 0.253193855286
  orientation: 
    x: 0.000514325981529
    y: 0.000129364359181
    z: 0.0661684824975
    w: 0.997808323606
---
header: 
  seq: 1452
  stamp: 
    secs: 2811
    nsecs: 291345332
  frame_id: "/map"
pose: 
  position: 
    x: 181.214859009
    y: -305.921569824
    z: 0.254590272903
  orientation: 
    x: 0.000423608578852
    y: 0.000133387660678
    z: 0.07125768081
    w: 0.99745784156
---
header: 
  seq: 1453
  stamp: 
    secs: 2811
    nsecs: 341345333
  frame_id: "/map"
pose: 
  position: 
    x: 181.50982666
    y: -305.862091064
    z: 0.254120349884
  orientation: 
    x: 0.00050159836813
    y: 0.000166880226976
    z: 0.0765019175841
    w: 0.997069294059
---
header: 
  seq: 1454
  stamp: 
    secs: 2811
    nsecs: 391345334
  frame_id: "/map"
pose: 
  position: 
    x: 181.77355957
    y: -305.80947876
    z: 0.254588365555
  orientation: 
    x: 0.000566233922318
    y: 0.000171623369378
    z: 0.0818464095823
    w: 0.996644778827
---
header: 
  seq: 1455
  stamp: 
    secs: 2811
    nsecs: 441345335
  frame_id: "/map"
pose: 
  position: 
    x: 182.053207397
    y: -305.756408691
    z: 0.2544028759
  orientation: 
    x: 0.000519304394957
    y: 0.000171508011877
    z: 0.0869305208627
    w: 0.996214226685
---
header: 
  seq: 1456
  stamp: 
    secs: 2811
    nsecs: 491345335
  frame_id: "/map"
pose: 
  position: 
    x: 182.290847778
    y: -305.699676514
    z: 0.253005743027
  orientation: 
    x: 0.00052355317844
    y: 0.000184790213332
    z: 0.0924256605251
    w: 0.995719432883
---
header: 
  seq: 1457
  stamp: 
    secs: 2811
    nsecs: 541345336
  frame_id: "/map"
pose: 
  position: 
    x: 182.565475464
    y: -305.625823975
    z: 0.253530740738
  orientation: 
    x: 0.000545727263897
    y: 0.000184260728539
    z: 0.0975086093497
    w: 0.995234514741
---
header: 
  seq: 1458
  stamp: 
    secs: 2811
    nsecs: 591345337
  frame_id: "/map"
pose: 
  position: 
    x: 182.812652588
    y: -305.565216064
    z: 0.254170179367
  orientation: 
    x: 0.000571581301952
    y: 0.000229457649575
    z: 0.102940212059
    w: 0.994687354592
---
header: 
  seq: 1459
  stamp: 
    secs: 2811
    nsecs: 641345338
  frame_id: "/map"
pose: 
  position: 
    x: 183.07749939
    y: -305.504425049
    z: 0.253965854645
  orientation: 
    x: 0.000541340976991
    y: 0.000192396865975
    z: 0.108480590053
    w: 0.994098401324
---
header: 
  seq: 1460
  stamp: 
    secs: 2811
    nsecs: 691345338
  frame_id: "/map"
pose: 
  position: 
    x: 183.322418213
    y: -305.429351807
    z: 0.253615856171
  orientation: 
    x: 0.00060187676119
    y: 0.000174427687223
    z: 0.114340929838
    w: 0.993441371739
---
header: 
  seq: 1461
  stamp: 
    secs: 2811
    nsecs: 741345339
  frame_id: "/map"
pose: 
  position: 
    x: 183.55960083
    y: -305.355682373
    z: 0.252984046936
  orientation: 
    x: 0.000519445919896
    y: 0.000192366378875
    z: 0.119673933526
    w: 0.992813095605
---
header: 
  seq: 1462
  stamp: 
    secs: 2811
    nsecs: 791345340
  frame_id: "/map"
pose: 
  position: 
    x: 183.821746826
    y: -305.275878906
    z: 0.253413677216
  orientation: 
    x: 0.000613806478458
    y: 0.000130055447503
    z: 0.125725243595
    w: 0.992064901834
---
header: 
  seq: 1463
  stamp: 
    secs: 2811
    nsecs: 841345341
  frame_id: "/map"
pose: 
  position: 
    x: 184.062942505
    y: -305.184631348
    z: 0.253084659576
  orientation: 
    x: 0.00056474195613
    y: 0.000199855957047
    z: 0.131218256255
    w: 0.99135332266
---
header: 
  seq: 1464
  stamp: 
    secs: 2811
    nsecs: 891345341
  frame_id: "/map"
pose: 
  position: 
    x: 184.299957275
    y: -305.109893799
    z: 0.252598285675
  orientation: 
    x: 0.000575006261851
    y: 0.000169206013462
    z: 0.137488371259
    w: 0.990503199644
---
header: 
  seq: 1465
  stamp: 
    secs: 2811
    nsecs: 941345342
  frame_id: "/map"
pose: 
  position: 
    x: 184.549713135
    y: -305.023254395
    z: 0.250968933105
  orientation: 
    x: 0.000619383587006
    y: 0.000119266584781
    z: 0.143157240842
    w: 0.989699755751
---
header: 
  seq: 1466
  stamp: 
    secs: 2811
    nsecs: 991345343
  frame_id: "/map"
pose: 
  position: 
    x: 184.783432007
    y: -304.940917969
    z: 0.25380897522
  orientation: 
    x: 0.000577298765142
    y: 0.00021200406014
    z: 0.149578841799
    w: 0.988749610299
---
header: 
  seq: 1467
  stamp: 
    secs: 2812
    nsecs:  41345344
  frame_id: "/map"
pose: 
  position: 
    x: 185.015533447
    y: -304.844848633
    z: 0.25351524353
  orientation: 
    x: 0.000638130028688
    y: 0.000111949842165
    z: 0.156209246912
    w: 0.987723772842
---
header: 
  seq: 1468
  stamp: 
    secs: 2812
    nsecs:  91345344
  frame_id: "/map"
pose: 
  position: 
    x: 185.253128052
    y: -304.758544922
    z: 0.255073785782
  orientation: 
    x: 0.000587591756246
    y: 0.000169876644604
    z: 0.16269640517
    w: 0.986675988166
---
header: 
  seq: 1469
  stamp: 
    secs: 2812
    nsecs: 141345345
  frame_id: "/map"
pose: 
  position: 
    x: 185.453308105
    y: -304.661804199
    z: 0.254374027252
  orientation: 
    x: 0.000600242851083
    y: 0.000168372546654
    z: 0.169361230214
    w: 0.98555384686
---
header: 
  seq: 1470
  stamp: 
    secs: 2812
    nsecs: 191345346
  frame_id: "/map"
pose: 
  position: 
    x: 185.709213257
    y: -304.559997559
    z: 0.253885984421
  orientation: 
    x: 0.000631126252466
    y: 0.000178980855795
    z: 0.176042949165
    w: 0.984382268072
---
header: 
  seq: 1471
  stamp: 
    secs: 2812
    nsecs: 241345347
  frame_id: "/map"
pose: 
  position: 
    x: 185.922241211
    y: -304.452270508
    z: 0.252718925476
  orientation: 
    x: 0.000637333333207
    y: 0.000149462001993
    z: 0.182726432547
    w: 0.983163578615
---
header: 
  seq: 1472
  stamp: 
    secs: 2812
    nsecs: 291345347
  frame_id: "/map"
pose: 
  position: 
    x: 186.141891479
    y: -304.335083008
    z: 0.25214600563
  orientation: 
    x: 0.000634919650551
    y: 0.000233867211007
    z: 0.189702598162
    w: 0.981841365208
---
header: 
  seq: 1473
  stamp: 
    secs: 2812
    nsecs: 341345348
  frame_id: "/map"
pose: 
  position: 
    x: 186.370376587
    y: -304.249450684
    z: 0.252261400223
  orientation: 
    x: 0.000573008115447
    y: 0.000262432091726
    z: 0.196355076873
    w: 0.980532654519
---
header: 
  seq: 1474
  stamp: 
    secs: 2812
    nsecs: 391345349
  frame_id: "/map"
pose: 
  position: 
    x: 186.571365356
    y: -304.127380371
    z: 0.253103733063
  orientation: 
    x: 0.000644253507311
    y: 0.0002657358614
    z: 0.203421426293
    w: 0.979091026231
---
header: 
  seq: 1475
  stamp: 
    secs: 2812
    nsecs: 441345350
  frame_id: "/map"
pose: 
  position: 
    x: 186.781936646
    y: -304.01663208
    z: 0.253657341003
  orientation: 
    x: 0.000616224812581
    y: 0.000288595395933
    z: 0.210779373139
    w: 0.977533422875
---
header: 
  seq: 1476
  stamp: 
    secs: 2812
    nsecs: 491345350
  frame_id: "/map"
pose: 
  position: 
    x: 186.981567383
    y: -303.908905029
    z: 0.254977464676
  orientation: 
    x: 0.000601851132021
    y: 0.000333854305163
    z: 0.218093409604
    w: 0.975927656645
---
header: 
  seq: 1477
  stamp: 
    secs: 2812
    nsecs: 541345351
  frame_id: "/map"
pose: 
  position: 
    x: 187.173843384
    y: -303.797576904
    z: 0.254347085953
  orientation: 
    x: 0.000597757351161
    y: 0.000355491570128
    z: 0.225196271467
    w: 0.974313171229
---
header: 
  seq: 1478
  stamp: 
    secs: 2812
    nsecs: 591345352
  frame_id: "/map"
pose: 
  position: 
    x: 187.373794556
    y: -303.680297852
    z: 0.25452375412
  orientation: 
    x: 0.000519604150974
    y: 0.000351148200022
    z: 0.232360702406
    w: 0.972629482734
---
header: 
  seq: 1479
  stamp: 
    secs: 2812
    nsecs: 641345353
  frame_id: "/map"
pose: 
  position: 
    x: 187.566894531
    y: -303.555786133
    z: 0.255280971527
  orientation: 
    x: 0.000499189855853
    y: 0.000381104683347
    z: 0.239121803948
    w: 0.970989376072
---
header: 
  seq: 1480
  stamp: 
    secs: 2812
    nsecs: 691345353
  frame_id: "/map"
pose: 
  position: 
    x: 187.749450684
    y: -303.441101074
    z: 0.255125045776
  orientation: 
    x: 0.000469940288522
    y: 0.000368054867716
    z: 0.245959903592
    w: 0.96927982003
---
header: 
  seq: 1481
  stamp: 
    secs: 2812
    nsecs: 741345354
  frame_id: "/map"
pose: 
  position: 
    x: 187.90953064
    y: -303.324737549
    z: 0.255417346954
  orientation: 
    x: 0.000506167402889
    y: 0.000373077847489
    z: 0.252491536545
    w: 0.967598898604
---
header: 
  seq: 1482
  stamp: 
    secs: 2812
    nsecs: 791345355
  frame_id: "/map"
pose: 
  position: 
    x: 188.096511841
    y: -303.199615479
    z: 0.255110502243
  orientation: 
    x: 0.000451646150374
    y: 0.000329980613209
    z: 0.259136709052
    w: 0.965840490531
---
header: 
  seq: 1483
  stamp: 
    secs: 2812
    nsecs: 841345356
  frame_id: "/map"
pose: 
  position: 
    x: 188.285507202
    y: -303.08303833
    z: 0.258042573929
  orientation: 
    x: 0.000371010786481
    y: 0.000407510282001
    z: 0.265770195817
    w: 0.964036254143
---
header: 
  seq: 1484
  stamp: 
    secs: 2812
    nsecs: 891345356
  frame_id: "/map"
pose: 
  position: 
    x: 188.433425903
    y: -302.945800781
    z: 0.256080389023
  orientation: 
    x: 0.000596432828716
    y: 0.000422384742236
    z: 0.273239659852
    w: 0.96194571268
---
header: 
  seq: 1485
  stamp: 
    secs: 2812
    nsecs: 941345357
  frame_id: "/map"
pose: 
  position: 
    x: 188.588775635
    y: -302.847198486
    z: 0.256529808044
  orientation: 
    x: 0.000394302742932
    y: 0.000370904344452
    z: 0.278893929903
    w: 0.960321760047
---
header: 
  seq: 1486
  stamp: 
    secs: 2812
    nsecs: 991345358
  frame_id: "/map"
pose: 
  position: 
    x: 188.74887085
    y: -302.72265625
    z: 0.256361961365
  orientation: 
    x: 0.000417887304594
    y: 0.000379942958227
    z: 0.28545363661
    w: 0.958392353037
---
header: 
  seq: 1487
  stamp: 
    secs: 2813
    nsecs:  41345359
  frame_id: "/map"
pose: 
  position: 
    x: 188.909591675
    y: -302.59286499
    z: 0.256209135056
  orientation: 
    x: 0.000343362035885
    y: 0.000346673608647
    z: 0.291906571968
    w: 0.956446713185
---
header: 
  seq: 1488
  stamp: 
    secs: 2813
    nsecs:  91345359
  frame_id: "/map"
pose: 
  position: 
    x: 189.049362183
    y: -302.47756958
    z: 0.256609916687
  orientation: 
    x: 0.000324357053198
    y: 0.000386357399014
    z: 0.297994020527
    w: 0.95456760329
---
header: 
  seq: 1489
  stamp: 
    secs: 2813
    nsecs: 141345360
  frame_id: "/map"
pose: 
  position: 
    x: 189.204574585
    y: -302.352478027
    z: 0.255191326141
  orientation: 
    x: 0.000337042347995
    y: 0.00037118078365
    z: 0.30471945614
    w: 0.952442020113
---
header: 
  seq: 1490
  stamp: 
    secs: 2813
    nsecs: 191345361
  frame_id: "/map"
pose: 
  position: 
    x: 189.332458496
    y: -302.231750488
    z: 0.256847143173
  orientation: 
    x: 0.000287803776199
    y: 0.000372547208704
    z: 0.311250066682
    w: 0.950327929911
---
header: 
  seq: 1491
  stamp: 
    secs: 2813
    nsecs: 241345362
  frame_id: "/map"
pose: 
  position: 
    x: 189.462112427
    y: -302.106811523
    z: 0.256013393402
  orientation: 
    x: 0.000316435582502
    y: 0.000331750523615
    z: 0.317044316857
    w: 0.948410613057
---
header: 
  seq: 1492
  stamp: 
    secs: 2813
    nsecs: 291345362
  frame_id: "/map"
pose: 
  position: 
    x: 189.621582031
    y: -302.036651611
    z: 0.256315231323
  orientation: 
    x: 0.000322604942315
    y: 0.000333615027287
    z: 0.324765856768
    w: 0.945794334359
---
header: 
  seq: 1493
  stamp: 
    secs: 2813
    nsecs: 341345363
  frame_id: "/map"
pose: 
  position: 
    x: 189.712631226
    y: -301.872192383
    z: 0.255307197571
  orientation: 
    x: 0.000311418344821
    y: 0.000316667898463
    z: 0.329349162217
    w: 0.944208097872
---
header: 
  seq: 1494
  stamp: 
    secs: 2813
    nsecs: 391345364
  frame_id: "/map"
pose: 
  position: 
    x: 189.844940186
    y: -301.75201416
    z: 0.255635499954
  orientation: 
    x: 0.000271735145602
    y: 0.000366073503701
    z: 0.33541936819
    w: 0.942068808311
---
header: 
  seq: 1495
  stamp: 
    secs: 2813
    nsecs: 441345365
  frame_id: "/map"
pose: 
  position: 
    x: 189.956970215
    y: -301.620178223
    z: 0.255953788757
  orientation: 
    x: 0.000313212710566
    y: 0.000355151262238
    z: 0.342001457011
    w: 0.939699302526
---
header: 
  seq: 1496
  stamp: 
    secs: 2813
    nsecs: 491345365
  frame_id: "/map"
pose: 
  position: 
    x: 190.084915161
    y: -301.504211426
    z: 0.255945920944
  orientation: 
    x: 0.00031215036491
    y: 0.000318112183309
    z: 0.34794668475
    w: 0.937514216393
---
header: 
  seq: 1497
  stamp: 
    secs: 2813
    nsecs: 541345366
  frame_id: "/map"
pose: 
  position: 
    x: 190.196228027
    y: -301.385223389
    z: 0.254462003708
  orientation: 
    x: 0.000332118020927
    y: 0.00027701236509
    z: 0.353820944747
    w: 0.935313077007
---
header: 
  seq: 1498
  stamp: 
    secs: 2813
    nsecs: 591345367
  frame_id: "/map"
pose: 
  position: 
    x: 190.289138794
    y: -301.262573242
    z: 0.254858016968
  orientation: 
    x: 0.000239850188284
    y: 0.000337474829699
    z: 0.359416334295
    w: 0.933177221767
---
header: 
  seq: 1499
  stamp: 
    secs: 2813
    nsecs: 641345368
  frame_id: "/map"
pose: 
  position: 
    x: 190.404373169
    y: -301.135955811
    z: 0.253876447678
  orientation: 
    x: 0.000267111527325
    y: 0.000269998783547
    z: 0.364521358773
    w: 0.931194949917
---
header: 
  seq: 1500
  stamp: 
    secs: 2813
    nsecs: 691345368
  frame_id: "/map"
pose: 
  position: 
    x: 190.496047974
    y: -301.016113281
    z: 0.253414392471
  orientation: 
    x: 0.000262762045447
    y: 0.000248180848199
    z: 0.370630130429
    w: 0.928780477713
---
header: 
  seq: 1501
  stamp: 
    secs: 2813
    nsecs: 741345369
  frame_id: "/map"
pose: 
  position: 
    x: 190.611022949
    y: -300.907012939
    z: 0.256515979767
  orientation: 
    x: 0.000253074210182
    y: 0.000301017353279
    z: 0.376768901446
    w: 0.926307206193
---
header: 
  seq: 1502
  stamp: 
    secs: 2813
    nsecs: 791345370
  frame_id: "/map"
pose: 
  position: 
    x: 190.697692871
    y: -300.782440186
    z: 0.253583431244
  orientation: 
    x: 0.000220657736887
    y: 0.000236929051231
    z: 0.382165276199
    w: 0.924093932911
---
header: 
  seq: 1503
  stamp: 
    secs: 2813
    nsecs: 841345370
  frame_id: "/map"
pose: 
  position: 
    x: 190.804489136
    y: -300.671020508
    z: 0.255612850189
  orientation: 
    x: 0.000201581637567
    y: 0.000238068981817
    z: 0.387959853365
    w: 0.921676220191
---
header: 
  seq: 1504
  stamp: 
    secs: 2813
    nsecs: 891345371
  frame_id: "/map"
pose: 
  position: 
    x: 190.889755249
    y: -300.553955078
    z: 0.257344961166
  orientation: 
    x: 0.000187440436809
    y: 0.000247308610006
    z: 0.393326310596
    w: 0.919398889001
---
header: 
  seq: 1505
  stamp: 
    secs: 2813
    nsecs: 941345372
  frame_id: "/map"
pose: 
  position: 
    x: 190.973876953
    y: -300.442687988
    z: 0.255836486816
  orientation: 
    x: 0.0001685718203
    y: 0.000259343474737
    z: 0.39896716072
    w: 0.916965162365
---
header: 
  seq: 1506
  stamp: 
    secs: 2813
    nsecs: 991345373
  frame_id: "/map"
pose: 
  position: 
    x: 191.05241394
    y: -300.328216553
    z: 0.254576444626
  orientation: 
    x: 0.000197378746257
    y: 0.000200431843338
    z: 0.403789328084
    w: 0.914851954905
---
header: 
  seq: 1507
  stamp: 
    secs: 2814
    nsecs:  41345373
  frame_id: "/map"
pose: 
  position: 
    x: 191.139328003
    y: -300.196960449
    z: 0.25613284111
  orientation: 
    x: 0.000166801045752
    y: 0.000193791108615
    z: 0.408799068956
    w: 0.912624378287
---
header: 
  seq: 1508
  stamp: 
    secs: 2814
    nsecs:  91345374
  frame_id: "/map"
pose: 
  position: 
    x: 191.223312378
    y: -300.095214844
    z: 0.2557117939
  orientation: 
    x: 0.000192183443307
    y: 0.000232826022633
    z: 0.414408707145
    w: 0.91009083739
---
header: 
  seq: 1509
  stamp: 
    secs: 2814
    nsecs: 141345375
  frame_id: "/map"
pose: 
  position: 
    x: 191.31968689
    y: -299.968994141
    z: 0.255273342133
  orientation: 
    x: 0.000212353446094
    y: 0.000160874876652
    z: 0.419652908119
    w: 0.907684617989
---
header: 
  seq: 1510
  stamp: 
    secs: 2814
    nsecs: 191345376
  frame_id: "/map"
pose: 
  position: 
    x: 191.379989624
    y: -299.863342285
    z: 0.254196643829
  orientation: 
    x: 0.000261206326667
    y: 0.000154136631131
    z: 0.42476944275
    w: 0.905301512491
---
header: 
  seq: 1511
  stamp: 
    secs: 2814
    nsecs: 241345376
  frame_id: "/map"
pose: 
  position: 
    x: 191.47164917
    y: -299.733886719
    z: 0.255326986313
  orientation: 
    x: 0.000227538391788
    y: 0.000141680650555
